"X1","OBJECTID","ID","ADDRESS","TERMINAL_NUMBER","LATITUDE","LONGITUDE","INSTALLED","LOCKED","INSTALL_DATE","REMOVAL_DATE","TEMPORARY_INSTALL","NUMBER_OF_BIKES","NUMBER_OF_EMPTY_DOCKS","X","Y","SE_ANNO_CAD_DATA","station.num","rides.out","rides.in","traffic","amount.net","amount.net.percent"
135,166771790,113,"Columbus Circle / Union Station",31623,38.89696,-77.00493,"YES","NO",NA,NA,"NO",38,14,399572.33452251,136567.84875416,NA,31623,13712,14660,28372,948,3.34132243056535
16,166774065,51,"Massachusetts Ave & Dupont Circle NW",31200,38.9101,-77.0444,"YES","NO",NA,NA,"NO",26,19,396149.11786763,138027.41994099,NA,31200,9071,10666,19737,1595,8.08126868318387
463,166774038,23,"15th & P St NW",31201,38.90985,-77.034438,"YES","NO",NA,NA,"NO",6,12,397013.12734699,137999.29479922,NA,31201,8195,8879,17074,684,4.00609113271641
185,166771840,168,"Jefferson Dr & 14th St SW",31247,38.888553,-77.032429,"YES","NO",NA,NA,"NO",6,16,397186.53186857,135635.0937417,NA,31247,8026,8411,16437,385,2.34227657115045
220,166771875,204,"Lincoln Memorial",31258,38.888251,-77.049426,"YES","NO",NA,NA,"NO",15,10,395711.89180633,135602.23051407,NA,31258,7876,7869,15745,-7,-0.0444585582724674
154,166771809,137,"Thomas Circle",31241,38.9059,-77.0325,"YES","NO",NA,NA,"NO",1,31,397181.05762675,137560.75091601,NA,31241,7211,6710,13921,-501,-3.59887939084836
455,166774030,15,"14th & V St NW",31101,38.9176,-77.0321,"YES","NO",NA,NA,"NO",6,20,397216.20899969,138859.53510936,NA,31101,6563,7289,13852,726,5.24112041582443
124,166771779,102,"New Hampshire Ave & T St NW",31229,38.91554,-77.03818,"YES","NO",NA,NA,"NO",2,21,396688.84082399,138631.06089313,NA,31229,6606,6530,13136,-76,-0.578562728380024
471,166774046,31,"5th & K St NW",31600,38.90304,-77.019027,"YES","NO",NA,NA,"NO",10,8,398349.59483465,137242.93793811,NA,31600,5846,6154,12000,308,2.56666666666667
17,166774066,52,"1st & M St NE",31603,38.9057,-77.0056,"YES","NO",NA,NA,"NO",0,10,399514.27317303,137538.06239613,NA,31603,5777,5905,11682,128,1.09570279061804
195,166771850,178,"Jefferson Memorial",31249,38.879819,-77.037413,"YES","NO",NA,NA,"NO",8,12,396753.73375318,134665.71792817,NA,31249,5707,5970,11677,263,2.25229082812366
43,166774092,78,"Eastern Market Metro / Pennsylvania Ave & 7th St SE",31613,38.884,-76.995397,"YES","NO",NA,NA,"NO",2,17,400399.37156595,135129.1858182,NA,31613,5907,5690,11597,-217,-1.87117357937398
136,166771791,114,"North Capitol St & F St NW",31624,38.897446,-77.00989,"YES","NO",NA,NA,"NO",18,5,399142.24595819,136621.83352922,NA,31624,5506,5906,11412,400,3.50508236943568
186,166771841,169,"Smithsonian-National Mall / Jefferson Dr & 12th St SW",31248,38.888767,-77.02858,"YES","NO",NA,NA,"NO",20,3,397520.46999936,135658.73782359,NA,31248,5364,5670,11034,306,2.77324632952692
465,166774040,25,"14th & Rhode Island Ave NW",31203,38.9086,-77.0323,"YES","NO",NA,NA,"NO",3,20,397198.51101235,137860.46677503,NA,31203,5369,5607,10976,238,2.16836734693878
24,166774073,59,"17th & Corcoran St NW",31214,38.9121,-77.0387,"YES","NO",NA,NA,"NO",1,18,396643.58195891,138249.21138577,NA,31214,5326,5461,10787,135,1.25150644294058
114,166771769,92,"8th & H St NW",31228,38.8997,-77.023086,"YES","NO",NA,NA,"NO",25,8,397997.42273853,136872.25229554,NA,31228,4757,5799,10556,1042,9.87116331943918
464,166774039,24,"14th & R St NW",31202,38.912682,-77.031681,"YES","NO",NA,NA,"NO",6,9,397252.35624534,138313.58352632,NA,31202,4845,5526,10371,681,6.56638704078681
415,166773990,408,"4th St & Madison Dr NW",31288,38.890493,-77.017253,"YES","NO",NA,NA,"NO",2,14,398503.20865538,135850.09061145,NA,31288,5010,5037,10047,27,0.268736936398925
378,166773953,370,"8th & O St NW",31281,38.90864,-77.02277,"YES","NO",NA,NA,"NO",4,15,398025.08145063,137864.65778749,NA,31281,4881,5062,9943,181,1.82037614402092
18,166774067,53,"21st & M St NW",31212,38.90534,-77.046774,"YES","NO",NA,NA,"NO",16,2,395942.94637664,137499.12394013,NA,31212,4627,4961,9588,334,3.48352106800167
48,166774097,83,"New York Ave & 15th St NW",31222,38.8991,-77.0337,"YES","NO",NA,NA,"NO",13,5,397076.69494362,136805.93385932,NA,31222,4558,4971,9529,413,4.33413789484731
222,166771877,207,"5th St & Massachusetts Ave NW",31265,38.90093,-77.018677,"YES","NO",NA,NA,"NO",0,19,398379.90597158,137008.70467648,NA,31265,4690,4715,9405,25,0.26581605528974
19,166774068,54,"17th & K St NW",31213,38.90276,-77.03863,"YES","NO",NA,NA,"NO",19,4,396649.21425572,137212.39264868,NA,31213,4281,5082,9363,801,8.55495033643063
416,166773991,409,"Henry Bacon Dr & Lincoln Memorial Circle NW",31289,38.890544,-77.049379,"YES","NO",NA,NA,"NO",4,14,395716.10712295,135856.76917174,NA,31289,4743,4616,9359,-127,-1.35698258360936
13,166774062,47,"7th & T St NW",31109,38.9155,-77.0222,"YES","NO",NA,NA,"NO",3,12,398074.70465287,138626.16224103,NA,31109,4501,4728,9229,227,2.45963809730198
458,166774033,18,"Adams Mill & Columbia Rd NW",31104,38.922925,-77.042581,"YES","NO",NA,NA,"NO",12,2,396307.54666751,139451.02670294,NA,31104,4904,4291,9195,-613,-6.66666666666667
364,166773939,351,"18th & R St NW",31278,38.912648,-77.041834,"YES","NO",NA,NA,"NO",0,19,396371.80070351,138310.16380231,NA,31278,4446,4682,9128,236,2.58545135845749
244,166771899,229,"17th St & Massachusetts Ave NW",31267,38.908142,-77.038359,"YES","NO",NA,NA,"NO",7,11,396672.97197532,137809.82841168,NA,31267,4533,4574,9107,41,0.450203140441419
12,166774061,46,"20th St & Florida Ave NW",31110,38.9154,-77.0446,"YES","NO",NA,NA,"NO",6,9,396132.05899493,138615.77216932,NA,31110,4553,4539,9092,-14,-0.153981522217334
462,166774037,22,"4th & M St SW",31108,38.8767,-77.0178,"YES","NO",NA,NA,"NO",11,12,398455.45488951,134318.97061928,NA,31108,4165,4627,8792,462,5.25477707006369
125,166771780,103,"Metro Center / 12th & G St NW",31230,38.898364,-77.027869,"YES","NO",NA,NA,"NO",28,2,397582.47982913,136724.06141167,NA,31230,4061,4724,8785,663,7.54695503699488
127,166771782,105,"7th & F St NW/Portrait Gallery",31232,38.897296,-77.022185,"YES","NO",NA,NA,"NO",24,0,398075.51443364,136605.36972539,NA,31232,3949,4655,8604,706,8.20548582054858
126,166771781,104,"14th & D St NW / Ronald Reagan Building",31231,38.894514,-77.031617,"YES","NO",NA,NA,"NO",16,7,397257.20836553,136296.78677707,NA,31231,3861,4613,8474,752,8.87420344583432
137,166771792,115,"11th & M St NW",31266,38.905607,-77.027137,"YES","NO",NA,NA,"NO",4,15,397646.21680293,137528.07359221,NA,31266,4329,3982,8311,-347,-4.17518950788112
225,166771880,210,"M St & Delaware Ave NE",31627,38.905707,-77.003041,"YES","NO",NA,NA,"NO",5,17,399736.23301134,137538.82894813,NA,31627,3987,4292,8279,305,3.6840198091557
170,166771825,153,"M St & Pennsylvania Ave NW",31246,38.905126,-77.056887,"YES","NO",NA,NA,"NO",13,3,395065.75667991,137475.86623703,NA,31246,3551,4716,8267,1165,14.0921737026733
265,166771920,251,"Constitution Ave & 2nd St NW/DOL",31271,38.892275,-77.013917,"YES","NO",NA,NA,"NO",23,4,398792.6549073,136047.85718073,NA,31271,4003,4195,8198,192,2.34203464259576
313,166773889,301,"Calvert St & Woodley Pl NW",31121,38.923583,-77.050046,"YES","NO",NA,NA,"NO",4,15,395660.25194765,139524.3986898,NA,31121,4166,3877,8043,-289,-3.59318662190725
159,166771814,142,"Maryland & Independence Ave SW",31243,38.887299,-77.018939,"YES","NO",NA,NA,"NO",25,10,398356.86545321,135495.56070939,NA,31243,3737,4241,7978,504,6.31737277513161
40,166774089,75,"L'Enfant Plaza / 7th & C St SW",31218,38.886266,-77.022241,"YES","NO",NA,NA,"NO",14,0,398070.35828347,135380.95431573,NA,31218,3783,4167,7950,384,4.83018867924528
362,166773937,349,"17th & G St NW",31277,38.89841,-77.039624,"YES","NO",NA,NA,"NO",25,3,396562.78460078,136729.54472867,NA,31277,3817,4090,7907,273,3.45263690400911
118,166771773,96,"3rd & H St NE",31616,38.900412,-77.001949,"YES","NO",NA,NA,"NO",8,11,399830.93718412,136951.03859198,NA,31616,3749,3988,7737,239,3.08905260436862
160,166771815,143,"4th & E St SW",31244,38.88412,-77.017445,"YES","NO",NA,NA,"NO",18,1,398486.41642165,135142.64129491,NA,31244,3643,4069,7712,426,5.52385892116183
49,166774098,84,"Convention Center / 7th & M St NW",31223,38.905737,-77.02227,"YES","NO",NA,NA,"NO",3,19,398068.36951337,137542.39041117,NA,31223,3890,3765,7655,-125,-1.63291966035271
139,166771794,117,"14th & G St NW",31238,38.898069,-77.031823,"YES","NO",NA,NA,"NO",19,3,397239.47532464,136691.42619808,NA,31238,3620,3978,7598,358,4.71176625427744
216,166771871,200,"22nd & I St NW / Foggy Bottom",31257,38.90088,-77.048911,"YES","NO",NA,NA,"NO",14,0,395757.32337487,137004.12512577,NA,31257,3810,3782,7592,-28,-0.368809272918862
153,166771808,136,"Rhode Island & Connecticut Ave NW",31239,38.905996,-77.039802,"YES","NO",NA,NA,"NO",20,3,396547.71101083,137571.65850828,NA,31239,3492,4044,7536,552,7.32484076433121
128,166771783,106,"17th & K St NW / Farragut Square",31233,38.902061,-77.038322,"YES","NO",NA,NA,"NO",25,9,396675.89775652,137134.78675859,NA,31233,3540,3986,7526,446,5.92612277438214
256,166771911,242,"12th & U St NW",31268,38.916787,-77.028139,"YES","NO",NA,NA,"NO",1,30,397559.68883751,138769.17197864,NA,31268,3716,3758,7474,42,0.561948086700562
417,166773992,410,"17th St & Independence Ave SW",31290,38.888097,-77.038325,"YES","NO",NA,NA,"NO",10,9,396674.98675895,135584.67242635,NA,31290,3727,3725,7452,-2,-0.0268384326355341
129,166771784,107,"20th & O St NW / Dupont South",31234,38.908905,-77.04478,"YES","NO",NA,NA,"NO",1,17,396116.0947985,137894.78124868,NA,31234,3539,3906,7445,367,4.92948287441236
349,166773924,336,"New Hampshire Ave & 24th St NW",31275,38.901755,-77.051084,"YES","NO",NA,NA,"NO",13,5,395568.88566438,137101.36038208,NA,31275,3486,3858,7344,372,5.06535947712418
176,166771831,159,"10th & K St NW",31263,38.9024,-77.02622,"YES","NO",NA,NA,"NO",7,16,397725.65241957,137172.04739912,NA,31263,3647,3692,7339,45,0.613162556206568
425,166774000,418,"14th & Irving St NW",31124,38.928552,-77.032224,"YES","NO",NA,NA,"NO",0,31,397205.88456877,140075.30373809,NA,31124,4567,2756,7323,-1811,-24.7303017888843
166,166771821,149,"California St & Florida Ave NW",31116,38.917761,-77.04062,"YES","NO",NA,NA,"NO",0,18,396477.34162756,138877.70174796,NA,31116,3547,3768,7315,221,3.02118933697881
229,166771884,214,"18th St & Wyoming Ave NW",31114,38.918809,-77.041571,"YES","NO",NA,NA,"NO",6,17,396394.92173743,138994.07565048,NA,31114,3930,3383,7313,-547,-7.47983043894435
134,166771789,112,"25th St & Pennsylvania Ave NW",31237,38.903827,-77.053485,"YES","NO",NA,NA,"NO",6,9,395360.75356309,137331.48834951,NA,31237,3321,3629,6950,308,4.43165467625899
162,166771817,145,"7th & R St NW / Shaw Library",31245,38.912719,-77.022155,"YES","NO",NA,NA,"NO",4,11,398078.53235602,138317.44722014,NA,31245,3452,3481,6933,29,0.418289340833694
179,166771834,162,"1st & K St SE",31628,38.87861,-77.006004,"YES","NO",NA,NA,"NO",3,11,399479.03366972,134530.86164671,NA,31628,3288,3627,6915,339,4.90238611713666
44,166774093,79,"18th & M St NW",31221,38.905067,-77.041779,"YES","NO",NA,NA,"NO",24,2,396376.18562535,137468.60859132,NA,31221,3342,3541,6883,199,2.89118117100102
266,166771921,252,"Washington & Independence Ave SW/HHS",31272,38.886978,-77.013769,"YES","NO",NA,NA,"NO",27,3,398805.40570038,135459.84686256,NA,31272,3257,3569,6826,312,4.57075886317023
121,166771776,99,"Lincoln Park / 13th & East Capitol St NE",31619,38.890461,-76.988355,"YES","NO",NA,NA,"NO",6,19,401010.26737857,135846.46135466,NA,31619,3572,3248,6820,-324,-4.75073313782991
286,166771941,272,"14th & Belmont St NW",31119,38.921074,-77.031887,"YES","NO",NA,NA,"NO",0,14,397234.81559,139245.17181709,NA,31119,3612,3169,6781,-443,-6.53295974045126
41,166774090,76,"10th St & Constitution Ave NW",31219,38.893028,-77.026013,"YES","NO",NA,NA,"NO",9,19,397743.31133834,136131.67560302,NA,31219,3070,3652,6722,582,8.65813745908956
456,166774031,16,"11th & Kenyon St NW",31102,38.929464,-77.027822,"YES","NO",NA,NA,"NO",2,25,397587.60905935,140176.41805133,NA,31102,3719,2910,6629,-809,-12.2039523306683
467,166774042,27,"21st & I St NW",31205,38.9008,-77.047,"YES","NO",NA,NA,"NO",33,1,395923.08426032,136995.15740474,NA,31205,3168,3422,6590,254,3.85432473444613
457,166774032,17,"16th & Harvard St NW",31103,38.926088,-77.036536,"YES","NO",NA,NA,"NO",0,33,396831.8852902,139801.91944918,NA,31103,4137,2388,6525,-1749,-26.8045977011494
409,166773984,402,"2nd St & Massachusetts Ave NE",31641,38.894972,-77.003135,"YES","NO",NA,NA,"NO",11,12,399728.03881641,136347.15809919,NA,31641,3219,3167,6386,-52,-0.814281240212966
47,166774096,82,"5th & F St NW",31620,38.897222,-77.019347,"YES","NO",NA,NA,"NO",25,6,398321.70110602,136597.09913431,NA,31620,2945,3379,6324,434,6.86274509803922
209,166771864,193,"15th & K St NW",31254,38.902,-77.03353,"YES","NO",NA,NA,"NO",25,2,397091.55982715,137127.85168549,NA,31254,3003,3222,6225,219,3.51807228915663
188,166771843,171,"6th St & Indiana Ave NW",31264,38.894573,-77.01994,"YES","NO",NA,NA,"NO",17,2,398270.19576117,136303.05019148,NA,31264,2938,3253,6191,315,5.08803101276046
261,166771916,247,"3rd St & Pennsylvania Ave SE",31269,38.887378,-77.001955,"YES","NO",NA,NA,"NO",1,13,399830.38573816,135504.16169424,NA,31269,3248,2919,6167,-329,-5.33484676503973
52,166774101,87,"C & O Canal & Wisconsin Ave NW",31225,38.90375,-77.06269,"YES","NO",NA,NA,"NO",9,14,394562.31341761,137323.44877775,NA,31225,2505,3625,6130,1120,18.2707993474715
473,166774048,33,"Park Rd & Holmead Pl NW",31602,38.9308,-77.0315,"YES","NO",NA,NA,"NO",2,16,397268.74809473,140324.82919203,NA,31602,3515,2580,6095,-935,-15.3404429860541
214,166771869,198,"24th & N St NW",31255,38.9066,-77.05152,"YES","NO",NA,NA,"NO",2,13,395531.3698104,137639.21579131,NA,31255,2823,3220,6043,397,6.56958464338905
262,166771917,248,"8th & D St NW",31270,38.894851,-77.02324,"YES","NO",NA,NA,"NO",14,1,397983.92709424,136333.97809506,NA,31270,2775,3265,6040,490,8.11258278145695
113,166771768,91,"13th St & New York Ave NW",31227,38.900283,-77.029822,"YES","NO",NA,NA,"NO",13,7,397413.13477499,136937.13928906,NA,31227,2810,3194,6004,384,6.39573617588275
164,166771819,147,"1st & Rhode Island Ave NW",31506,38.915417,-77.012289,"YES","NO",NA,NA,"NO",1,13,398934.23503524,138616.78618346,NA,31506,2995,3004,5999,9,0.150025004167361
361,166773936,348,"15th & L St NW",31276,38.90366,-77.034846,"YES","NO",NA,NA,"NO",18,5,396977.47844927,137312.16782257,NA,31276,2888,2940,5828,52,0.892244337680165
132,166771787,110,"37th & O St NW / Georgetown University",31236,38.90774,-77.071652,"YES","NO",NA,NA,"NO",11,12,393785.30362802,137766.94307056,NA,31236,2961,2826,5787,-135,-2.33281493001555
158,166771813,141,"18th St & Pennsylvania Ave NW",31242,38.89968,-77.041539,"YES","NO",NA,NA,"NO",19,7,396396.73056387,136870.59871663,NA,31242,2882,2816,5698,-66,-1.15830115830116
144,166771799,127,"Lynn & 19th St North",31014,38.897315,-77.070993,"YES","NO",NA,NA,"NO",0,31,393841.56164086,136609.63967085,NA,31014,2244,3361,5605,1117,19.92863514719
202,166771857,186,"12th & L St NW",31251,38.903819,-77.0284,"YES","NO",NA,NA,"NO",4,15,397536.60617,137329.6244241,NA,31251,2863,2738,5601,-125,-2.2317443313694
394,166773969,387,"16th & R St NW",31282,38.912652,-77.036278,"YES","NO",NA,NA,"NO",1,18,396853.66429606,138310.40167951,NA,31282,2699,2881,5580,182,3.26164874551971
37,166774086,72,"Georgetown Harbor / 30th St NW",31215,38.902221,-77.059219,"YES","NO",NA,NA,"NO",5,13,394863.27537199,137153.51643639,NA,31215,2188,3372,5560,1184,21.294964028777
33,166774082,68,"Eastern Market / 7th & North Carolina Ave SE",31610,38.886952,-76.996806,"YES","NO",NA,NA,"NO",4,11,400277.11058153,135456.87541854,NA,31610,2830,2714,5544,-116,-2.09235209235209
120,166771775,98,"4th & East Capitol St NE",31618,38.889955,-77.000349,"YES","NO",NA,NA,"NO",2,9,399969.72212823,135790.22701798,NA,31618,2831,2633,5464,-198,-3.62371888726208
9,166774058,43,"10th & U St NW",31111,38.9172,-77.0259,"YES","NO",NA,NA,"NO",0,15,397753.87564422,138814.96095752,NA,31111,2653,2777,5430,124,2.28360957642726
377,166773952,369,"2nd & G St NE",31639,38.89967,-77.003666,"YES","NO",NA,NA,"NO",11,12,399681.99552091,136868.67522408,NA,31639,2536,2872,5408,336,6.21301775147929
46,166774095,81,"13th & H St NE",31611,38.900022,-76.988422,"YES","NO",NA,NA,"NO",0,0,401004.32015331,136907.80734764,NA,31611,2575,2830,5405,255,4.71785383903793
123,166771778,101,"13th & D St NE",31622,38.894832,-76.987633,"YES","NO",NA,NA,"NO",1,30,401072.83909032,136331.6849909,NA,31622,2744,2660,5404,-84,-1.55440414507772
117,166771772,95,"6th & H St NE",31615,38.899972,-76.998347,"YES","NO",NA,NA,"NO",13,10,400143.38766466,136902.19455674,NA,31615,2482,2918,5400,436,8.07407407407407
215,166771870,199,"10th & E St NW",31256,38.895914,-77.026064,"YES","NO",NA,NA,"NO",12,2,397738.97843831,136452.04567026,NA,31256,2338,3049,5387,711,13.1984406905513
36,166774085,71,"USDA / 12th & Independence Ave SW",31217,38.887237,-77.02823,"YES","NO",NA,NA,"NO",33,5,397551.12964707,135488.88637292,NA,31217,2612,2719,5331,107,2.00712811855187
287,166771942,273,"3rd & Tingey St SE",31634,38.87501,-77.0024,"YES","NO",NA,NA,"NO",11,8,399791.74179325,134131.220022,NA,31634,2339,2908,5247,569,10.8442919763674
141,166771796,124,"Ohio Dr & West Basin Dr SW / MLK & FDR Memorials",31240,38.88412,-77.04657,"YES","NO",NA,NA,"NO",1,22,395959.43911633,135143.52730167,NA,31240,2585,2647,5232,62,1.18501529051988
406,166773981,399,"11th & O St NW",31286,38.90843,-77.02714,"YES","NO",NA,NA,"NO",2,16,397646.04975824,137841.44968105,NA,31286,2630,2524,5154,-106,-2.05665502522313
401,166773976,394,"22nd & P ST NW",31285,38.909394,-77.048728,"YES","NO",NA,NA,"NO",5,12,395773.70179205,137949.23962405,NA,31285,2343,2758,5101,415,8.13565967457361
26,166774075,61,"Florida Ave & R St NW",31503,38.9126,-77.0135,"YES","NO",NA,NA,"NO",2,13,398829.1646746,138304.09064665,NA,31503,2591,2508,5099,-83,-1.62777015101
397,166773972,390,"14th & L St NW",31283,38.903658,-77.031737,"YES","NO",NA,NA,"NO",7,12,397247.15119261,137311.8474609,NA,31283,2599,2497,5096,-102,-2.00156985871272
461,166774036,21,"Lamont & Mt Pleasant NW",31107,38.9319,-77.0388,"YES","NO",NA,NA,"NO",0,19,396635.84323825,140447.18241804,NA,31107,2877,2215,5092,-662,-13.0007855459544
71,166774120,453,"15th & W St NW",31125,38.919086,-77.034502,"YES","NO",NA,NA,"NO",1,17,397007.96400294,139024.5695478,NA,31125,2579,2497,5076,-82,-1.61544523246651
375,166773950,367,"11th & S St NW",31280,38.913761,-77.027025,"YES","NO",NA,NA,"NO",7,16,397656.19931508,138433.23161638,NA,31280,2555,2514,5069,-41,-0.808838035115407
34,166774083,69,"14th St & New York Ave NW",31216,38.899632,-77.031686,"YES","NO",NA,NA,"NO",23,0,397251.41977838,136864.92754697,NA,31216,2421,2628,5049,207,4.09982174688057
111,166771766,89,"D St & Maryland Ave NE",31612,38.894758,-76.997114,"YES","NO",NA,NA,"NO",1,21,400250.36118988,136323.40169319,NA,31612,2562,2323,4885,-239,-4.89252814738997
370,166773945,357,"19th & G St NW",31279,38.898412,-77.043182,"YES","YES",NA,NA,"NO",22,0,396254.14318763,136729.90672594,NA,31279,2429,2419,4848,-10,-0.206270627062706
142,166771797,125,"11th & F St NW",31262,38.897857,-77.026975,"YES","NO",NA,NA,"NO",13,2,397660.01398863,136667.7570737,NA,31262,2203,2522,4725,319,6.75132275132275
245,166771900,230,"15th & Euclid St  NW",31117,38.92333,-77.0352,"YES","NO",NA,NA,"NO",0,14,396947.61465,139495.71246314,NA,31117,2856,1750,4606,-1106,-24.0121580547112
347,166773922,334,"10th & G St NW",31274,38.898243,-77.026235,"YES","NO",NA,NA,"NO",14,9,397724.21868838,136710.58744,NA,31274,1970,2602,4572,632,13.8232720909886
130,166771785,108,"4th & D St NW / Judiciary Square",31621,38.895344,-77.016106,"YES","NO",NA,NA,"NO",10,5,398602.81213383,136388.57162835,NA,31621,2248,2297,4545,49,1.07810781078108
51,166774100,86,"19th & L St NW",31224,38.903407,-77.043648,"YES","NO",NA,NA,"NO",5,10,396213.98476874,137284.41101743,NA,31224,2235,2300,4535,65,1.43329658213892
143,166771798,126,"23rd & E St NW",31260,38.896104,-77.049882,"YES","NO",NA,NA,"NO",5,14,395672.80643508,136473.99663923,NA,31260,2295,2218,4513,-77,-1.70618214048305
398,166773973,391,"1st & O St NW",31519,38.908643,-77.012365,"YES","NO",NA,NA,"NO",1,14,398927.54207227,137864.81714313,NA,31519,2327,2184,4511,-143,-3.1700288184438
468,166774043,28,"Georgia & New Hampshire Ave NW",31400,38.936043,-77.024649,"YES","NO",NA,NA,"NO",3,11,397862.93084314,140906.66509731,NA,31400,2486,1943,4429,-543,-12.2601038609167
241,166771896,226,"Wisconsin Ave & O St NW",31312,38.90849,-77.063586,"YES","NO",NA,NA,"NO",13,6,394484.96152307,137849.68097811,NA,31312,2077,2329,4406,252,5.71947344530186
116,166771771,94,"Eckington Pl & Q St NE",31505,38.910972,-77.00495,"YES","NO",NA,NA,"NO",1,21,399570.68391328,138123.29427771,NA,31505,2293,2096,4389,-197,-4.48849396217817
381,166773956,374,"Maryland Ave & E St NE",31640,38.896134,-76.9929,"YES","NO",NA,NA,"NO",5,13,400615.91481674,136476.16859309,NA,31640,2280,2097,4377,-183,-4.18094585332419
249,166771904,234,"8th & F St NE",31631,38.897274,-76.994749,"YES","NO",NA,NA,"NO",7,8,400455.50943968,136602.70680593,NA,31631,2166,2136,4302,-30,-0.697350069735007
152,166771807,135,"Columbia Rd & Belmont St NW",31113,38.920669,-77.04368,"YES","NO",NA,NA,"NO",1,18,396212.12597888,139200.636678,NA,31113,2744,1497,4241,-1247,-29.4034425842962
466,166774041,26,"20th & E St NW",31204,38.8963,-77.045,"YES","NO",NA,NA,"NO",0,15,396096.32377953,136495.53410413,NA,31204,2131,2104,4235,-27,-0.63754427390791
57,166774106,439,"1st & D St SE",31643,38.884916,-77.005965,"YES","NO",NA,NA,"NO",1,18,399482.46343538,135230.87572136,NA,31643,2151,2079,4230,-72,-1.70212765957447
322,166773898,310,"North Capitol St & G Pl NE",31637,38.899703,-77.008911,"YES","NO",NA,NA,"NO",19,0,399227.02220444,136872.3698297,NA,31637,1983,2154,4137,171,4.13343002175489
201,166771856,185,"20th & L St NW",31250,38.903584,-77.044789,"YES","NO",NA,NA,"NO",15,3,396115.02439795,137304.10738551,NA,31250,2043,2065,4108,22,0.53554040895813
247,166771902,232,"New Jersey Ave & R St NW",31509,38.912659,-77.017669,"YES","NO",NA,NA,"NO",6,9,398467.59465205,138310.70186081,NA,31509,2118,1974,4092,-144,-3.51906158357771
203,166771858,187,"21st St & Pennsylvania Ave NW",31252,38.901539,-77.046564,"YES","NO",NA,NA,"NO",18,1,395960.94600021,137077.17295375,NA,31252,2082,2001,4083,-81,-1.98383541513593
133,166771788,111,"11th & H St NE",31614,38.899983,-76.991383,"YES","NO",NA,NA,"NO",9,9,400747.47205932,136903.4496248,NA,31614,1892,2129,4021,237,5.89405620492415
314,166773890,302,"New Jersey Ave & N St NW/Dunbar HS",31636,38.90706,-77.015231,"YES","NO",NA,NA,"NO",1,17,398678.93496158,137689.1287794,NA,31636,2042,1865,3907,-177,-4.53033017660609
204,166771859,188,"19th & K St NW",31253,38.902204,-77.04337,"YES","NO",NA,NA,"NO",22,1,396238.03496422,137150.85682925,NA,31253,1926,1964,3890,38,0.976863753213368
212,166771867,196,"Braddock Rd Metro",31047,38.814577,-77.052808,"YES","NO",NA,NA,"NO",4,22,395413.7448307,127424.05927501,NA,31047,2073,1733,3806,-340,-8.93326326852338
343,166773918,330,"34th & Water St NW",31314,38.903663,-77.067668,"YES","NO",NA,NA,"NO",13,6,394130.51811026,137314.0993687,NA,31314,1439,2349,3788,910,24.0232312565998
165,166771820,148,"Columbia Rd & Georgia Ave NW",31115,38.928121,-77.023795,"YES","NO",NA,NA,"NO",2,17,397936.74344645,140027.23478731,NA,31115,2274,1503,3777,-771,-20.4130262112788
20,166774069,55,"3rd & H St NW",31604,38.899408,-77.015289,"YES","NO",NA,NA,"NO",14,0,398673.76205224,136839.69580021,NA,31604,1850,1901,3751,51,1.35963743001866
161,166771816,144,"3rd & G St SE",31625,38.881185,-77.001828,"YES","NO",NA,NA,"NO",13,6,399841.39039203,134816.69073244,NA,31625,1864,1881,3745,17,0.453938584779706
263,166771918,249,"3rd & Elm St NW",31118,38.917622,-77.01597,"YES","NO",NA,NA,"NO",3,12,398615.04270249,138861.60900002,NA,31118,1950,1791,3741,-159,-4.25020048115477
21,166774070,56,"3rd & D St SE",31605,38.8851,-77.0023,"YES","NO",NA,NA,"NO",6,5,399800.44743845,135251.28674748,NA,31605,1895,1838,3733,-57,-1.5269220466113
246,166771901,231,"8th & East Capitol St NE",31629,38.889988,-76.995193,"YES","NO",NA,NA,"NO",4,6,400417.03628136,135793.90119809,NA,31629,2003,1660,3663,-343,-9.36390936390936
131,166771786,109,"19th St & Constitution Ave NW",31235,38.8923,-77.0436,"YES","NO",NA,NA,"NO",11,24,396217.55940232,136051.44360649,NA,31235,1757,1890,3647,133,3.6468330134357
288,166771943,274,"10th & Florida Ave NW",31120,38.920387,-77.025672,"YES","NO",NA,NA,"NO",1,18,397773.74796634,139168.73911509,NA,31120,1904,1723,3627,-181,-4.99035015164047
331,166773907,319,"1st & H St NW",31638,38.900358,-77.012108,"YES","NO",NA,NA,"NO",15,0,398949.71056005,136945.11200625,NA,31638,1646,1934,3580,288,8.04469273743017
454,166774029,14,"19th St & Pennsylvania Ave NW",31100,38.9003,-77.0429,"YES","NO",NA,NA,"NO",7,8,396278.70399052,136939.47827919,NA,31100,1826,1738,3564,-88,-2.46913580246914
15,166774064,49,"M St & New Jersey Ave SE",31208,38.8763,-77.0037,"YES","NO",NA,NA,"NO",11,6,399678.94106865,134274.42351994,NA,31208,1514,2019,3533,505,14.2938013020096
357,166773932,344,"Court House Metro / 15th & N Uhle St",31089,38.890612,-77.084801,"YES","NO",NA,NA,"NO",10,10,392643.06650429,135866.57615407,NA,31089,2015,1506,3521,-509,-14.4561204203351
42,166774091,77,"Kennedy Center",31211,38.897293,-77.05557,"YES","NO",NA,NA,"NO",11,7,395179.46081279,136606.27005869,NA,31211,1592,1892,3484,300,8.61079219288174
426,166774001,419,"16th & K St NW",31291,38.90268,-77.035737,"YES","NO",NA,NA,"NO",19,2,396900.15104952,137203.40979111,NA,31291,1675,1777,3452,102,2.95480880648899
267,166771922,253,"Independence Ave & L'Enfant Plaza SW/DOE",31633,38.887312,-77.025762,"YES","NO",NA,NA,"NO",5,9,397764.90711108,135497.14874174,NA,31633,1608,1806,3414,198,5.79964850615114
404,166773979,397,"14th & Girard St NW",31123,38.925284,-77.032375,"YES","NO",NA,NA,"NO",3,20,397192.66283204,139712.53240828,NA,31123,2399,951,3350,-1448,-43.2238805970149
469,166774044,29,"14th St & Spring Rd NW",31401,38.9375,-77.0328,"YES","NO",NA,NA,"NO",0,11,397156.2969996,141068.6272297,NA,31401,1857,1493,3350,-364,-10.865671641791
22,166774071,57,"Potomac & Pennsylvania Ave SE",31606,38.8803,-76.9862,"YES","NO",NA,NA,"NO",8,7,401197.39591334,134718.53788821,NA,31606,1676,1634,3310,-42,-1.26888217522659
193,166771848,176,"Ballston Metro / N Stuart & 9th St N",31037,38.881044,-77.111768,"YES","NO",NA,NA,"NO",7,16,390302.23781937,134806.97373735,NA,31037,1802,1500,3302,-302,-9.14597213809812
251,166771906,236,"15th & F St NE",31632,38.897195,-76.983575,"YES","NO",NA,NA,"NO",3,16,401424.82399465,136594.05225642,NA,31632,1609,1634,3243,25,0.770891150169596
23,166774072,58,"14th & D St SE",31607,38.884,-76.9861,"YES","NO",NA,NA,"NO",0,14,401206.0101559,135129.26756581,NA,31607,1609,1631,3240,22,0.679012345679012
342,166773917,329,"Iwo Jima Memorial/N Meade & 14th St N",31077,38.88992,-77.071301,"YES","NO",NA,NA,"NO",7,11,393814.20236548,135788.75739915,NA,31077,1458,1648,3106,190,6.11719253058596
393,166773968,386,"16th & Irving St NW",31122,38.928893,-77.03625,"YES","NO",NA,NA,"NO",0,19,396856.80861,140113.28859173,NA,31122,1996,1078,3074,-918,-29.8633702016916
145,166771800,128,"Rosslyn Metro / Wilson Blvd & Ft Myer Dr",31015,38.8946,-77.072305,"YES","NO",NA,NA,"NO",6,13,393727.51072873,136308.34254655,NA,31015,1158,1904,3062,746,24.3631613324624
459,166774034,19,"14th & Harvard St NW",31105,38.9268,-77.0322,"YES","NO",NA,NA,"NO",0,19,397207.89698712,139880.81598519,NA,31105,2105,946,3051,-1159,-37.9875450671911
39,166774088,74,"US Dept of State / Virginia Ave & 21st St NW",31220,38.894919,-77.046587,"YES","NO",NA,NA,"NO",8,7,395958.57590909,136342.30123407,NA,31220,1416,1588,3004,172,5.72569906790945
171,166771826,154,"15th St & Massachusetts Ave SE",31626,38.88732,-76.983569,"YES","NO",NA,NA,"NO",2,13,401425.5417836,135497.84971905,NA,31626,1486,1359,2845,-127,-4.46397188049209
163,166771818,146,"9th & Upshur St NW",31404,38.9418,-77.0251,"YES","NO",NA,NA,"NO",0,15,397824.00484445,141545.75347825,NA,31404,1627,1190,2817,-437,-15.5129570465034
448,166774023,8,"Crystal City Metro / 18th & Bell St",31007,38.857405,-77.051132,"YES","NO",NA,NA,"NO",12,7,395561.96451388,132178.17554745,NA,31007,1631,1163,2794,-468,-16.7501789549034
248,166771903,233,"15th & East Capitol St NE",31630,38.889908,-76.983326,"YES","NO",NA,NA,"NO",3,8,401446.57181554,135785.14170208,NA,31630,1474,1318,2792,-156,-5.58739255014327
150,166771805,133,"21st St & Constitution Ave NW",31261,38.892459,-77.046567,"YES","NO",NA,NA,"NO",0,15,395960.17160973,136069.22097211,NA,31261,1315,1402,2717,87,3.20206109679794
29,166774078,64,"Wisconsin Ave & Newark St NW",31302,38.934881,-77.072755,"YES","NO",NA,NA,"NO",1,18,393692.03675799,140779.89807813,NA,31302,1778,928,2706,-850,-31.4116777531412
168,166771823,151,"3000 Connecticut Ave NW / National Zoo",31307,38.930282,-77.055599,"YES","NO",NA,NA,"NO",2,12,395179.17550824,140268.32354902,NA,31307,1542,1150,2692,-392,-14.5616641901932
366,166773941,353,"Union Market/6th St & Neal Pl NE",31517,38.908008,-76.996985,"YES","NO",NA,NA,"NO",15,8,400261.5033925,137794.25863345,NA,31517,1307,1375,2682,68,2.53542132736764
400,166773975,393,"18th & C St NW",31284,38.893511,-77.041544,"YES","NO",NA,NA,"NO",4,14,396395.98519699,136185.79095053,NA,31284,1265,1313,2578,48,1.86190845616757
76,166774125,458,"6th & K St NE",31645,38.902877,-76.998405,"YES","NO",NA,NA,"NO",1,18,400138.35088416,137224.67283593,NA,31645,1238,1335,2573,97,3.76991838321026
446,166774021,6,"Pentagon City Metro / 12th & S Hayes St",31005,38.862303,-77.059936,"YES","NO",NA,NA,"NO",11,8,394798.17263784,132722.3537753,NA,31005,1247,1320,2567,73,2.84378652123101
61,166774110,443,"22nd St & Constitution Ave NW",31292,38.892441,-77.048947,"YES","NO",NA,NA,"NO",5,17,395753.69834411,136067.33084543,NA,31292,1374,1177,2551,-197,-7.72246177969424
333,166773909,321,"Takoma Metro",31408,38.975219,-77.016855,"YES","NO",NA,NA,"NO",10,9,398539.47386044,145255.40691126,NA,31408,1455,1057,2512,-398,-15.843949044586
255,166771910,241,"Neal St & Trinidad Ave NE",31512,38.903732,-76.987211,"YES","NO",NA,NA,"NO",2,13,401109.30924373,137319.66124122,NA,31512,1338,1142,2480,-196,-7.90322580645161
182,166771837,165,"Virginia Square Metro / N Monroe St & 9th St N",31024,38.882788,-77.103148,"YES","NO",NA,NA,"NO",3,15,391050.38685989,134999.69056817,NA,31024,1313,1160,2473,-153,-6.18681763040841
8,166774057,42,"4th & W St NE",31500,38.919077,-77.000648,"YES","NO",NA,NA,"NO",3,12,399943.80500792,139023.00525965,NA,31500,1158,1180,2338,22,0.940975192472198
452,166774027,12,"23rd & Crystal Dr",31011,38.8533,-77.0498,"YES","NO",NA,NA,"NO",13,4,395677.32772972,131722.42730273,NA,31011,1095,1216,2311,121,5.23582864560796
110,166771765,88,"6th & Water St SW / SW Waterfront",31609,38.87675,-77.02127,"YES","NO",NA,NA,"NO",1,17,398154.35666339,134324.58543011,NA,31609,1062,1231,2293,169,7.37025730484082
460,166774035,20,"Calvert & Biltmore St NW",31106,38.923203,-77.047637,"YES","NO",NA,NA,"NO",0,23,395869.12679181,139482.10370448,NA,31106,1461,830,2291,-631,-27.5425578350065
317,166773893,305,"Hains Point/Buckeye & Ohio Dr SW",31273,38.878433,-77.03023,"YES","NO",NA,NA,"NO",13,4,397376.94021436,134511.63048068,NA,31273,1081,1178,2259,97,4.29393536963258
1,166774050,35,"Connecticut Ave & Newark St NW / Cleveland Park",31305,38.934267,-77.057979,"YES","NO",NA,NA,"NO",3,7,394973.09374685,140710.82140544,NA,31305,1147,1106,2253,-41,-1.81979582778518
472,166774047,32,"19th & East Capitol St SE",31601,38.8896,-76.9769,"YES","NO",NA,NA,"NO",8,7,402004.07538839,135751.07274551,NA,31601,1119,1076,2195,-43,-1.95899772209567
206,166771861,190,"Market Square / King St & Royal St",31042,38.804718,-77.043363,"YES","NO",NA,NA,"NO",8,7,396233.50175862,126329.21564255,NA,31042,1011,1156,2167,145,6.69127826488233
146,166771801,129,"Clarendon Blvd & Pierce St",31016,38.893438,-77.076389,"YES","NO",NA,NA,"NO",8,7,393373.11414719,136179.63995377,NA,31016,1082,1079,2161,-3,-0.1388246182323
443,166774018,3,"20th & Crystal Dr",31002,38.856425,-77.049232,"YES","NO",NA,NA,"NO",6,11,395726.81757513,132069.29786306,NA,31002,1002,1158,2160,156,7.22222222222222
27,166774076,62,"8th & Eye St SE / Barracks Row",31608,38.8792,-76.9953,"YES","NO",NA,NA,"NO",9,1,400407.81504123,134596.34949947,NA,31608,1018,1097,2115,79,3.73522458628842
200,166771855,183,"Gallaudet / 8th St & Florida Ave NE",31508,38.90509,-76.9941,"YES","NO",NA,NA,"NO",8,11,400511.75228339,137470.34907981,NA,31508,1068,1045,2113,-23,-1.08849976336962
112,166771767,90,"34th St & Wisconsin Ave NW",31226,38.916442,-77.0682,"YES","NO",NA,NA,"NO",5,6,394085.43254774,138732.70732736,NA,31226,1173,920,2093,-253,-12.0879120879121
221,166771876,206,"20th St & Virginia Ave NW",31259,38.894722,-77.045128,"YES","NO",NA,NA,"NO",11,4,396085.13339566,136320.36909798,NA,31259,1037,1054,2091,17,0.813008130081301
45,166774094,80,"Tenleytown / Wisconsin Ave & Albemarle St NW",31303,38.947607,-77.079382,"YES","NO",NA,NA,"NO",1,13,393118.69490052,142193.07513516,NA,31303,1407,669,2076,-738,-35.5491329479769
157,166771812,140,"Clarendon Metro / Wilson Blvd & N Highland St",31022,38.88786,-77.094875,"YES","NO",NA,NA,"NO",3,13,391768.77673525,135561.94292851,NA,31022,1222,823,2045,-399,-19.5110024449878
407,166773982,400,"10th St & L'Enfant Plaza SW",31287,38.884377,-77.025791,"YES","NO",NA,NA,"NO",3,20,397762.29904386,135171.34175438,NA,31287,1096,925,2021,-171,-8.46115784265215
119,166771774,97,"Bladensburg Rd & Benning Rd NE",31617,38.900413,-76.982872,"YES","NO",NA,NA,"NO",9,6,401485.74030431,136951.28717624,NA,31617,892,1125,2017,233,11.5518096182449
25,166774074,60,"Van Ness Metro / UDC",31300,38.944551,-77.063896,"YES","NO",NA,NA,"NO",4,11,394460.8760265,141852.77834368,NA,31300,886,1123,2009,237,11.7969138875062
450,166774025,10,"27th & Crystal Dr",31009,38.848441,-77.051516,"YES","NO",NA,NA,"NO",10,9,395528.07344805,131183.1266423,NA,31009,849,1018,1867,169,9.05195500803428
7,166774056,41,"19th & E Street NW",31206,38.8952,-77.0436,"YES","NO",NA,NA,"NO",7,4,396217.71315484,136373.36645763,NA,31206,941,895,1836,-46,-2.50544662309368
449,166774024,9,"12th & Army Navy Dr",31008,38.8629,-77.0528,"YES","NO",NA,NA,"NO",7,4,395417.54218218,132788.24270087,NA,31008,877,951,1828,74,4.04814004376368
66,166774115,448,"N Lynn St & Fairfax Dr",31917,38.89386,-77.070862,"YES","NO",NA,NA,"NO",5,10,393852.62779737,136226.09856392,NA,31917,820,985,1805,165,9.14127423822715
232,166771887,217,"14th & Upshur St NW",31406,38.942016,-77.032652,"YES","NO",NA,NA,"NO",0,19,397169.30765214,141569.93848837,NA,31406,1082,720,1802,-362,-20.0887902330744
264,166771919,250,"Rhode Island Ave & V St NE",31513,38.918155,-77.004746,"YES","NO",NA,NA,"NO",2,17,399588.4183945,138920.6660217,NA,31513,1300,493,1793,-807,-45.0083658672616
10,166774059,44,"Georgia Ave and Fairmont St NW",31207,38.9249,-77.0222,"YES","NO",NA,NA,"NO",3,8,398074.95841142,139669.64140129,NA,31207,1047,652,1699,-395,-23.2489699823426
198,166771853,181,"Wilson Blvd & N Quincy St",31039,38.880012,-77.107854,"YES","NO",NA,NA,"NO",2,13,390641.70793238,134692.00542591,NA,31039,935,736,1671,-199,-11.9090365050868
444,166774019,4,"15th & Crystal Dr",31003,38.86017,-77.049593,"YES","NO",NA,NA,"NO",6,3,395695.7097594,132485.03678691,NA,31003,813,847,1660,34,2.04819277108434
180,166771835,163,"39th & Calvert St NW / Stoddert",31306,38.922649,-77.077271,"YES","NO",NA,NA,"NO",1,18,393299.34379144,139422.36308098,NA,31306,1227,421,1648,-806,-48.9077669902913
243,166771898,228,"Connecticut & Nebraska Ave NW",31310,38.955016,-77.069956,"YES","NO",NA,NA,"NO",0,23,393936.42688566,143014.87282821,NA,31310,956,690,1646,-266,-16.1603888213852
11,166774060,45,"1st & N St  SE",31209,38.8743,-77.0057,"YES","NO",NA,NA,"NO",8,30,399505.38183805,134052.41738498,NA,31209,719,905,1624,186,11.4532019704434
334,166773910,322,"Rhode Island Ave Metro",31516,38.920682,-76.995876,"YES","NO",NA,NA,"NO",4,15,400357.62798091,139201.18164889,NA,31516,802,813,1615,11,0.681114551083591
213,166771868,197,"King St Metro South",31048,38.805767,-77.06072,"YES","NO",NA,NA,"NO",15,7,394725.95516096,126446.52067087,NA,31048,938,664,1602,-274,-17.103620474407
138,166771793,116,"36th & Calvert St NW / Glover Park",31304,38.922581,-77.070334,"YES","NO",NA,NA,"NO",11,4,393900.88891277,139414.32818096,NA,31304,939,563,1502,-376,-25.0332889480692
420,166773995,413,"New Jersey Ave & L St NW",31642,38.903598,-77.01397,"YES","NO",NA,NA,"NO",9,14,398788.24933635,137304.80117123,NA,31642,809,688,1497,-121,-8.08283233132932
223,166771878,208,"39th & Veazey St NW",31308,38.943837,-77.077078,"YES","NO",NA,NA,"NO",0,15,393318.06595366,141774.40034915,NA,31308,869,607,1476,-262,-17.7506775067751
382,166773957,375,"New York Ave & Hecht Ave NE",31518,38.915604,-76.983683,"YES","NO",NA,NA,"NO",12,9,401415.09002301,138637.59947305,NA,31518,736,736,1472,0,0
348,166773923,335,"Lee Hwy & N Scott St",31080,38.897612,-77.080851,"YES","NO",NA,NA,"NO",7,8,392986.43793208,136643.32022975,NA,31080,792,661,1453,-131,-9.01582931865107
72,166774121,454,"12th St & Pennsylvania Ave SE",31644,38.882489,-76.990121,"YES","NO",NA,NA,"NO",9,10,400857.15299711,134961.48951302,NA,31644,734,712,1446,-22,-1.52143845089903
156,166771811,139,"Clarendon Blvd & N Fillmore St",31021,38.8881,-77.09308,"YES","NO",NA,NA,"NO",3,11,391924.53555307,135588.42446277,NA,31021,852,577,1429,-275,-19.2442267319804
175,166771830,158,"N Veitch  & 20th St N",31029,38.896923,-77.086502,"YES","NO",NA,NA,"NO",2,12,392496.15967477,136567.28510903,NA,31029,773,651,1424,-122,-8.56741573033708
447,166774022,7,"S Joyce & Army Navy Dr",31006,38.8637,-77.0633,"YES","NO",NA,NA,"NO",4,11,394506.31966949,132877.62800884,NA,31006,674,747,1421,73,5.13722730471499
380,166773955,373,"Oklahoma Ave & D St NE",31712,38.894474,-76.974828,"YES","NO",NA,NA,"NO",12,7,402183.685683,136292.1725555,NA,31712,580,816,1396,236,16.9054441260745
388,166773963,381,"King St Metro North / Cameron St",31098,38.80704,-77.059817,"YES","NO",NA,NA,"NO",6,7,394804.48092072,126587.77988315,NA,31098,652,736,1388,84,6.05187319884726
147,166771802,130,"Wilson Blvd & N Uhle St",31017,38.891696,-77.0846,"YES","NO",NA,NA,"NO",5,10,392660.61582418,135986.8924231,NA,31017,894,469,1363,-425,-31.1812179016875
451,166774026,11,"S Glebe & Potomac Ave",31010,38.8426,-77.0502,"YES","NO",NA,NA,"NO",9,2,395641.95431057,130534.67130912,NA,31010,627,710,1337,83,6.20792819745699
190,166771845,173,"Lee Hwy & N Adams St",31030,38.89593,-77.089006,"YES","NO",NA,NA,"NO",7,12,392278.83629398,136457.26307774,NA,31030,821,500,1321,-321,-24.2997728993187
289,166771944,275,"Potomac Ave & 8th St SE",31635,38.876737,-76.994468,"YES","NO",NA,NA,"NO",13,2,400480.02354886,134322.94186107,NA,31635,661,641,1302,-20,-1.53609831029186
341,166773916,328,"Bethesda Metro",32048,38.984691,-77.094537,"YES","NO",NA,NA,"NO",3,9,391809.23272994,146310.99720784,NA,32048,813,485,1298,-328,-25.2696456086287
28,166774077,63,"Ward Circle / American University",31301,38.938736,-77.087171,"YES","NO",NA,NA,"NO",8,5,392442.5577893,141208.93151752,NA,31301,787,504,1291,-283,-21.9209914794733
194,166771849,177,"N Randolph St & Fairfax Dr",31034,38.882629,-77.109366,"YES","NO",NA,NA,"NO",2,9,390510.86258655,134982.66832544,NA,31034,647,625,1272,-22,-1.72955974842767
177,166771832,160,"Fairfax Dr & Wilson Blvd",31023,38.885801,-77.097745,"YES","NO",NA,NA,"NO",5,6,391519.53488356,135333.64078152,NA,31023,624,637,1261,13,1.03092783505155
183,166771838,166,"Central Library / N Quincy St & 10th St N",31025,38.88397,-77.10783,"YES","NO",NA,NA,"NO",6,5,390644.30934888,135131.37099114,NA,31025,664,592,1256,-72,-5.73248407643312
181,166771836,164,"1st & Washington Hospital Center NW",31507,38.928743,-77.012457,"YES","NO",NA,NA,"NO",0,15,398919.86707704,140096.08692818,NA,31507,745,500,1245,-245,-19.6787148594378
352,166773927,339,"Ballenger Ave & Dulaney St",31084,38.802677,-77.063562,"YES","NO",NA,NA,"NO",4,12,394478.86466732,126103.67942378,NA,31084,658,584,1242,-74,-5.95813204508857
345,166773920,332,"Lee Hwy & N Cleveland St",31079,38.894941,-77.09169,"YES","NO",NA,NA,"NO",5,10,392045.89232185,136347.70672975,NA,31079,694,530,1224,-164,-13.3986928104575
300,166773876,287,"Carroll & Ethan Allen Ave",32026,38.977933,-77.006472,"YES","NO",NA,NA,"NO",4,11,399439.20704805,145556.57211519,NA,32026,645,578,1223,-67,-5.47833197056419
115,166771770,93,"10th & Monroe St NE",31504,38.932514,-76.992889,"YES","NO",NA,NA,"NO",3,8,400616.55446976,140514.65083001,NA,31504,683,534,1217,-149,-12.2432210353328
50,166774099,85,"Harvard St & Adams Mill Rd NW",31112,38.927872,-77.043358,"YES","NO",NA,NA,"NO",3,12,396240.42917895,140000.2175631,NA,31112,620,596,1216,-24,-1.97368421052632
205,166771860,189,"Prince St & Union St",31041,38.803124,-77.040363,"YES","NO",NA,NA,"NO",4,15,396494.00267968,126152.15218226,NA,31041,477,704,1181,227,19.2209991532599
470,166774045,30,"John McCormack Dr & Michigan Ave NE",31502,38.9346,-76.9955,"YES","NO",NA,NA,"NO",5,6,400390.15805724,140746.2005855,NA,31502,661,520,1181,-141,-11.9390347163421
326,166773902,314,"Connecticut Ave & Tilden St NW",31313,38.941154,-77.062036,"YES","NO",NA,NA,"NO",1,14,394621.86255124,141475.56998399,NA,31313,639,525,1164,-114,-9.79381443298969
445,166774020,5,"Aurora Hills Community Ctr/18th & Hayes St",31004,38.857866,-77.05949,"YES","NO",NA,NA,"NO",6,5,394836.55986472,132229.78939,NA,31004,591,571,1162,-20,-1.72117039586919
155,166771810,138,"Wilson Blvd & Franklin Rd",31020,38.8904,-77.0889,"YES","NO",NA,NA,"NO",1,10,392287.43385198,135843.38082737,NA,31020,683,475,1158,-208,-17.9620034542314
208,166771863,192,"King St & Patrick St",31044,38.805317,-77.049883,"YES","NO",NA,NA,"NO",8,7,395667.21274018,126395.99762896,NA,31044,519,624,1143,105,9.18635170603675
424,166773999,417,"Potomac & Swann Ave",31916,38.829545,-77.047844,"YES","NO",NA,NA,"NO",14,5,395845.72775465,129085.36771264,NA,31916,545,566,1111,21,1.89018901890189
365,166773940,352,"S Joyce & 16th St S",31091,38.859254,-77.063275,"YES","NO",NA,NA,"NO",9,6,394508.14728183,132384.08827775,NA,31091,592,511,1103,-81,-7.34360834088849
268,166771923,254,"Hamlin & 7th St NE",31514,38.927497,-76.997194,"YES","NO",NA,NA,"NO",4,11,400243.30946072,139957.7002703,NA,31514,620,466,1086,-154,-14.1804788213628
151,166771806,134,"Wilson Blvd & N Edgewood St",31019,38.889,-77.0925,"YES","NO",NA,NA,"NO",1,14,391974.9565944,135688.28027547,NA,31019,575,484,1059,-91,-8.59301227573182
408,166773983,401,"Connecticut Ave & Yuma St NW",31318,38.947156,-77.065115,"YES","NO",NA,NA,"NO",3,16,394355.40758835,142142.03129017,NA,31318,500,552,1052,52,4.94296577946768
219,166771874,203,"Arlington Blvd & N Queen St",31051,38.889365,-77.077294,"YES","NO",NA,NA,"NO",7,4,393294.22093326,135727.57124359,NA,31051,496,552,1048,56,5.34351145038168
69,166774118,451,"Madison & Fairfax St",31918,38.812351,-77.040691,"YES","NO",NA,NA,"NO",9,4,396465.96860825,127176.42009605,NA,31918,466,566,1032,100,9.68992248062015
14,166774063,48,"Eads & 22nd St S",31013,38.854381,-77.053412,"YES","NO",NA,NA,"NO",5,8,395363.87403378,131842.60323152,NA,31013,461,565,1026,104,10.1364522417154
368,166773943,355,"21st St N & N Pierce St",31093,38.898984,-77.078317,"YES","NO",NA,NA,"NO",3,12,393206.38482175,136795.43149257,NA,31093,649,377,1026,-272,-26.5107212475634
199,166771854,182,"Fairfax Dr & Kenmore St",31040,38.884616,-77.10108,"YES","NO",NA,NA,"NO",6,5,391230.0410303,135202.41180552,NA,31040,560,465,1025,-95,-9.26829268292683
184,166771839,167,"Washington Blvd & 10th St N",31026,38.884734,-77.093485,"YES","NO",NA,NA,"NO",5,10,391889.01580315,135214.80848005,NA,31026,649,361,1010,-288,-28.5148514851485
252,166771907,237,"12th & Irving St NE",31511,38.928644,-76.990955,"YES","NO",NA,NA,"NO",4,11,400784.28320356,140085.0622346,NA,31511,535,473,1008,-62,-6.15079365079365
217,166771872,201,"Utah St & 11th St N",31049,38.883669,-77.113905,"YES","NO",NA,NA,"NO",1,10,390117.18065021,135098.59783356,NA,31049,570,426,996,-144,-14.4578313253012
285,166771940,271,"Friendship Hts Metro/Wisconsin Ave & Wisconsin Cir",32014,38.961763,-77.085998,"YES","NO",NA,NA,"NO",8,11,392546.66110808,143765.03951761,NA,32014,532,463,995,-69,-6.93467336683417
178,166771833,161,"Key Blvd & N Quinn St",31027,38.896015,-77.078107,"YES","NO",NA,NA,"NO",4,6,393224.3192932,136465.83335402,NA,31027,582,407,989,-175,-17.6946410515672
173,166771828,156,"N Quincy St & Glebe Rd",31035,38.876393,-77.107735,"YES","NO",NA,NA,"NO",5,6,390651.55922442,134290.2570428,NA,31035,536,452,988,-84,-8.50202429149798
191,166771846,174,"15th & N Scott St",31031,38.89054,-77.08095,"YES","NO",NA,NA,"NO",6,5,392977.15386494,135858.28028852,NA,31031,586,393,979,-193,-19.7139938712972
233,166771888,218,"14th St & Colorado Ave NW",31407,38.956432,-77.032947,"YES","NO",NA,NA,"NO",6,13,397144.31085359,143170.25383441,NA,31407,599,354,953,-245,-25.7082896117524
351,166773926,338,"Potomac Greens Dr & Slaters Ln",31083,38.82175,-77.047494,"YES","NO",NA,NA,"NO",7,4,395875.6679074,128220.0552696,NA,31083,466,478,944,12,1.27118644067797
387,166773962,380,"Saint Asaph & Madison St",31097,38.812718,-77.044097,"YES","NO",NA,NA,"NO",7,8,396170.17569938,127217.29681658,NA,31097,418,493,911,75,8.23271130625686
453,166774028,13,"26th & S Clark St",31012,38.850688,-77.05152,"YES","NO",NA,NA,"NO",10,1,395527.86699294,131432.55965392,NA,31012,448,463,911,15,1.64654226125137
207,166771862,191,"Saint Asaph St & Pendleton  St",31043,38.810743,-77.044664,"YES","NO",NA,NA,"NO",10,4,396120.82449056,126998.08315733,NA,31043,432,474,906,42,4.63576158940397
187,166771842,170,"George Mason Dr & Wilson Blvd",31036,38.87887,-77.1207,"YES","NO",NA,NA,"NO",1,14,389526.91727648,134566.63015205,NA,31036,467,433,900,-34,-3.77777777777778
5,166774054,39,"Anacostia Metro",31801,38.862669,-76.994637,"YES","NO",NA,NA,"NO",6,5,400465.45079874,132761.28847182,NA,31801,428,450,878,22,2.50569476082005
418,166773993,411,"Franklin & S Washington St",31907,38.798133,-77.0487,"YES","NO",NA,NA,"NO",10,8,395769.54149325,125598.47353608,NA,31907,386,485,871,99,11.3662456946039
353,166773928,340,"Mount Vernon Ave & E Nelson Ave",31085,38.820064,-77.057619,"YES","NO",NA,NA,"NO",9,2,394996.30487652,128033.40446264,NA,31085,421,443,864,22,2.5462962962963
231,166771886,216,"Georgia Ave & Emerson St NW",31405,38.949662,-77.027333,"YES","NO",NA,NA,"NO",2,17,397630.68061866,142418.56148209,NA,31405,519,338,857,-181,-21.120186697783
344,166773919,331,"Duke St & John Carlyle St",31081,38.804378,-77.060866,"YES","NO",NA,NA,"NO",6,9,394713.17102609,126292.34142583,NA,31081,465,392,857,-73,-8.51808634772462
271,166771926,257,"Pershing & N George Mason Dr",31069,38.871822,-77.107906,"YES","NO",NA,NA,"NO",7,4,390636.1213437,133782.8595827,NA,31069,474,364,838,-110,-13.126491646778
259,166771914,245,"N Pershing Dr & Wayne St",31065,38.880705,-77.08596,"YES","NO",NA,NA,"NO",3,6,392541.48161705,134766.91705858,NA,31065,434,399,833,-35,-4.20168067226891
356,166773931,343,"Mount Vernon Ave & Kennedy St",31088,38.833077,-77.059821,"YES","NO",NA,NA,"NO",6,8,394806.02748043,129478.05665833,NA,31088,371,442,813,71,8.73308733087331
148,166771803,131,"N Rhodes & 16th St N",31018,38.892164,-77.079375,"YES","NO",NA,NA,"NO",5,6,393113.95026708,136038.43697471,NA,31018,484,320,804,-164,-20.3980099502488
354,166773929,341,"Mount Vernon Ave & E Del Ray Ave",31086,38.82595,-77.058541,"YES","NO",NA,NA,"NO",4,11,394916.65642773,128686.84003154,NA,31086,330,471,801,141,17.6029962546816
273,166771928,259,"Bethesda Ave & Arlington Rd",32002,38.981103,-77.097426,"YES","NO",NA,NA,"NO",8,11,391558.50228853,145912.95751583,NA,32002,366,434,800,68,8.5
339,166773914,326,"River Rd & Landy Ln",32046,38.964992,-77.103381,"YES","NO",NA,NA,"NO",2,16,391040.50480235,144125.05115003,NA,32046,395,391,786,-4,-0.508905852417303
210,166771865,194,"Commerce St & Fayette St",31045,38.805648,-77.05293,"YES","NO",NA,NA,"NO",9,5,395402.57471448,126432.8897394,NA,31045,421,361,782,-60,-7.67263427109974
355,166773930,342,"Monroe Ave & Leslie Ave",31087,38.820932,-77.053096,"YES","NO",NA,NA,"NO",5,10,395389.14299363,128129.51994126,NA,31087,370,401,771,31,4.02075226977951
442,166774017,2,"18th & Eads St.",31001,38.85725,-77.05332,"YES","NO",NA,NA,"NO",0,11,395372.04558977,132161.07808121,NA,31001,385,373,758,-12,-1.58311345646438
30,166774079,65,"14th St Heights / 14th & Crittenden St NW",31402,38.947774,-77.032818,"YES","NO",NA,NA,"NO",3,8,397155.14643993,142209.13309952,NA,31402,459,295,754,-164,-21.7506631299735
140,166771795,118,"Potomac Ave & 35th St S",31052,38.844015,-77.050537,"YES","NO",NA,NA,"NO",13,9,395612.7850665,130691.76225178,NA,31052,362,387,749,25,3.33778371161549
218,166771873,202,"Barton St & 10th St N",31050,38.884961,-77.08777,"YES","NO",NA,NA,"NO",2,8,392384.88706428,135239.51496366,NA,31050,440,306,746,-134,-17.9624664879357
260,166771915,246,"Columbia Pike & S Orme St",31066,38.867262,-77.072315,"YES","NO",NA,NA,"NO",4,5,393724.23923893,133273.6172133,NA,31066,365,373,738,8,1.0840108401084
197,166771852,180,"Glebe Rd & 11th St N",31038,38.883921,-77.116817,"YES","NO",NA,NA,"NO",6,4,389864.56068615,135126.89103108,NA,31038,381,355,736,-26,-3.53260869565217
238,166771893,223,"S Arlington Mill Dr & Campbell Ave",31060,38.84232,-77.089555,"YES","NO",NA,NA,"NO",11,4,392225.37311813,130506.2046103,NA,31060,336,389,725,53,7.31034482758621
230,166771885,215,"5th & Kennedy St NW",31403,38.956556,-77.019814,"YES","NO",NA,NA,"NO",5,10,398282.61975004,143183.69002703,NA,31403,354,350,704,-4,-0.568181818181818
396,166773971,389,"Woodmont Ave & Strathmore St",32055,38.979875,-77.093522,"YES","NO",NA,NA,"NO",5,6,391896.62547178,145776.28387,NA,32055,366,336,702,-30,-4.27350427350427
269,166771924,255,"Columbia Pike & S Walter Reed Dr",31067,38.862478,-77.086599,"YES","NO",NA,NA,"NO",7,5,392484.11792553,132743.63730167,NA,31067,353,347,700,-6,-0.857142857142857
226,166771881,211,"Columbia Pike & S Courthouse Rd",31053,38.863833,-77.080319,"YES","NO",NA,NA,"NO",1,14,393029.28804682,132893.55385171,NA,31053,407,290,697,-117,-16.7862266857963
427,166774002,420,"Wisconsin Ave & Brandywine St NW",31319,38.949813,-77.080217,"YES","NO",NA,NA,"NO",3,22,393046.52732614,142438.02422189,NA,31319,495,202,697,-293,-42.0373027259684
6,166774055,40,"Good Hope Rd & MLK Ave SE",31802,38.867373,-76.988039,"YES","NO",NA,NA,"NO",4,6,401038.0179126,133283.52133563,NA,31802,331,357,688,26,3.77906976744186
389,166773964,382,"Madison & N Henry St",31099,38.813485,-77.049468,"YES","NO",NA,NA,"NO",7,8,395703.75054801,127302.6777771,NA,31099,378,289,667,-89,-13.3433283358321
428,166774003,421,"24th & R St NE / National Arboretum",31520,38.91263,-76.971923,"YES","NO",NA,NA,"NO",10,8,402435.07623743,138307.70879166,NA,31520,338,318,656,-20,-3.04878048780488
360,166773935,347,"McKinley St & Connecticut Ave NW",31315,38.96497,-77.075946,"YES","NO",NA,NA,"NO",5,14,393418.1513114,144120.27361911,NA,31315,402,253,655,-149,-22.7480916030534
318,166773894,306,"Arlington Blvd & Fillmore St",31070,38.873755,-77.089233,"YES","NO",NA,NA,"NO",2,9,392256.73815346,133995.68730513,NA,31070,297,346,643,49,7.62052877138414
324,166773900,312,"Washington Blvd & Walter Reed Dr",31073,38.873219,-77.082104,"YES","NO",NA,NA,"NO",9,6,392875.30889503,133935.6067688,NA,31073,307,332,639,25,3.91236306729264
279,166771934,265,"Cordell & Norfolk Ave",32008,38.98954,-77.098029,"YES","NO",NA,NA,"NO",5,6,391507.26098283,146849.60289105,NA,32008,291,324,615,33,5.36585365853659
299,166773875,286,"Carroll & Westmoreland Ave",32025,38.975,-77.01121,"YES","NO",NA,NA,"NO",5,10,399028.62364911,145231.02061742,NA,32025,333,281,614,-52,-8.46905537459283
189,166771844,172,"N Veitch & Key Blvd",31028,38.893241,-77.086045,"YES","NO",NA,NA,"NO",3,8,392535.41805911,136158.51666851,NA,31028,412,196,608,-216,-35.5263157894737
332,166773908,320,"Fort Totten Metro",31515,38.952369,-77.002721,"YES","NO",NA,NA,"NO",1,18,399764.14322203,142718.71185822,NA,31515,329,261,590,-68,-11.5254237288136
441,166774016,1,"Eads St & 15th St S",31000,38.858971,-77.05323,"YES","NO",NA,NA,"NO",8,5,395379.96861159,132352.11690319,NA,31000,299,280,579,-19,-3.28151986183074
293,166771949,280,"East West Hwy & Blair Mill Rd",32019,38.990249,-77.02935,"YES","NO",NA,NA,"NO",11,4,397457.28862708,146924.15777926,NA,32019,304,259,563,-45,-7.99289520426288
325,166773901,313,"TJ Cmty Ctr / 2nd St & S Old Glebe Rd",31074,38.869418,-77.095596,"YES","NO",NA,NA,"NO",4,9,391704.07999902,133514.80715931,NA,31074,263,291,554,28,5.05415162454874
174,166771829,157,"Barcroft Community Center",31033,38.850337,-77.100989,"YES","NO",NA,NA,"NO",4,7,391233.72684756,131397.18311219,NA,31033,310,237,547,-73,-13.345521023766
237,166771892,222,"S Four Mile Run & Walter Reed Dr",31059,38.84736,-77.095431,"YES","NO",NA,NA,"NO",1,8,391715.83915544,131066.19628707,NA,31059,247,296,543,49,9.02394106813996
369,166773944,356,"Lee Hwy & N Kirkwood Rd",31094,38.895377,-77.09713,"YES","NO",NA,NA,"NO",8,7,391574.02398088,136396.59421225,NA,31094,214,329,543,115,21.1786372007366
423,166773998,416,"Powhatan St & Bashford Ln",31915,38.818748,-77.047783,"YES","NO",NA,NA,"NO",8,6,395850.39700673,127886.82678479,NA,31915,273,269,542,-4,-0.738007380073801
281,166771936,267,"Philadelphia & Maple Ave",32010,38.98128,-77.011336,"YES","NO",NA,NA,"NO",4,11,399017.79198301,145928.16270611,NA,32010,101,439,540,338,62.5925925925926
414,166773989,407,"Commonwealth & E Monroe Ave",31913,38.820058,-77.062821,"YES","NO",NA,NA,"NO",6,9,394544.55728453,128033.03642625,NA,31913,275,262,537,-13,-2.42085661080074
282,166771937,268,"Maple & Ritchie Ave",32011,38.983627,-77.006311,"YES","NO",NA,NA,"NO",6,13,399453.20125046,146188.66055368,NA,32011,152,380,532,228,42.8571428571429
301,166773877,288,"Battery Ln & Trolley Trail",32027,38.992375,-77.100104,"YES","NO",NA,NA,"NO",0,15,391327.8386053,147164.51103503,NA,32027,257,257,514,0,0
298,166773874,285,"Fenton St & Gist Ave",32024,38.989724,-77.023854,"YES","NO",NA,NA,"NO",3,8,397933.4145005,146865.73881136,NA,32024,270,240,510,-30,-5.88235294117647
38,166774087,73,"12th & Newton St NE",31501,38.933668,-76.991016,"YES","NO",NA,NA,"NO",2,9,400778.93906675,140642.76917646,NA,31501,313,194,507,-119,-23.4714003944773
224,166771879,209,"Fessenden St & Wisconsin Ave NW",31309,38.954812,-77.082426,"YES","NO",NA,NA,"NO",9,6,392855.54507199,142993.1290753,NA,31309,225,280,505,55,10.8910891089109
196,166771851,179,"Good Hope Rd & 14th St SE",31803,38.866611,-76.985238,"YES","NO",NA,NA,"NO",6,9,401281.11228246,133198.96929326,NA,31803,264,239,503,-25,-4.97017892644135
403,166773978,396,"Royal & Wilkes St",31903,38.799267,-77.0447,"YES","NO",NA,NA,"NO",3,12,396117.07402725,125724.17677004,NA,31903,227,275,502,48,9.56175298804781
346,166773921,333,"Arlington Blvd & S George Mason Dr/NFATC",31078,38.869442,-77.104503,"YES","NO",NA,NA,"NO",1,13,390931.12467668,133518.31847561,NA,31078,303,191,494,-112,-22.6720647773279
270,166771925,256,"Columbia Pike & S Dinwiddie St / Arlington Mill Community Center",31068,38.856319,-77.11153,"YES","NO",NA,NA,"NO",11,4,390319.53509636,132062.29229881,NA,31068,228,257,485,29,5.97938144329897
372,166773947,359,"Wilson Blvd & N Illinois St",31902,38.876528,-77.12712,"YES","NO",NA,NA,"NO",5,9,388969.49519692,134307.40677263,NA,31902,227,255,482,28,5.80912863070539
374,166773949,365,"31st & Water St NW",31293,38.902814,-77.061043,"YES","NO",NA,NA,"NO",4,15,394705.10354113,137219.4484204,NA,31293,221,261,482,40,8.29875518672199
274,166771929,260,"Montgomery Ave & Waverly St",32003,38.983838,-77.09221,"YES","NO",NA,NA,"NO",4,7,392010.75030162,146216.09966891,NA,32003,273,208,481,-65,-13.5135135135135
350,166773925,337,"Eisenhower Ave & Mill Race Ln",31082,38.801111,-77.068952,"YES","NO",NA,NA,"NO",7,8,394010.54617838,125930.1835293,NA,31082,264,211,475,-53,-11.1578947368421
308,166773884,295,"Ripley & Bonifant St",32034,38.992679,-77.029457,"YES","NO",NA,NA,"NO",8,7,397448.10582111,147193.91499269,NA,32034,292,176,468,-116,-24.7863247863248
58,166774107,440,"Reston Station",32215,38.948363,-77.338119,"YES","NO",NA,NA,"NO",15,20,370690.20310024,142328.28566882,NA,32215,211,255,466,44,9.44206008583691
303,166773879,290,"Offutt Ln & Chevy Chase Dr",32029,38.977093,-77.094589,"YES","NO",NA,NA,"NO",1,10,391803.8534602,145467.55036065,NA,32029,237,224,461,-13,-2.81995661605206
419,166773994,412,"Mount Vernon Ave & Four Mile Run Park",31909,38.843422,-77.064016,"YES","NO",NA,NA,"NO",5,10,394442.60095851,130626.66931776,NA,31909,232,226,458,-6,-1.31004366812227
211,166771866,195,"Henry St & Pendleton St",31046,38.811456,-77.050276,"YES","NO",NA,NA,"NO",6,11,395633.45246838,127077.48415181,NA,31046,236,217,453,-19,-4.19426048565121
367,166773942,354,"Lee Hwy & N Monroe St",31092,38.896456,-77.104562,"YES","NO",NA,NA,"NO",8,7,390929.4393853,136517.08391716,NA,31092,231,220,451,-11,-2.4390243902439
250,166771905,235,"18th St & Rhode Island Ave NE",31510,38.927095,-76.978924,"YES","NO",NA,NA,"NO",9,6,401827.51926549,139913.2820472,NA,31510,260,190,450,-70,-15.5555555555556
392,166773967,385,"Wisconsin Ave & Ingomar St NW",31317,38.958267,-77.084636,"YES","NO",NA,NA,"NO",3,16,392664.34410016,143376.84095484,NA,31317,252,195,447,-57,-12.751677852349
277,166771932,263,"Norfolk Ave & Fairmont St",32000,38.988562,-77.096539,"YES","NO",NA,NA,"NO",4,6,391636.2322207,146740.89768535,NA,32000,249,197,446,-52,-11.6591928251121
283,166771938,269,"Silver Spring Metro/Colesville Rd & Wayne Ave",32012,38.99521,-77.02918,"YES","NO",NA,NA,"NO",7,12,397472.19246231,147474.87366525,NA,32012,259,186,445,-73,-16.4044943820225
310,166773886,297,"Fenton St & Ellsworth Dr",32036,38.997033,-77.025608,"YES","NO",NA,NA,"NO",8,7,397781.68474404,147677.15218341,NA,32036,224,214,438,-10,-2.28310502283105
338,166773913,325,"Shady Grove Metro West",32045,39.119765,-77.166093,"YES","NO",NA,NA,"NO",4,15,385636.84639948,161314.58449914,NA,32045,203,227,430,24,5.58139534883721
337,166773912,324,"Shirlington Transit Center / S Quincy & Randolph St",31076,38.839912,-77.087083,"YES","NO",NA,NA,"NO",13,2,392439.72224526,130238.69248395,NA,31076,163,256,419,93,22.1957040572792
390,166773965,383,"Medical Center Metro",32053,38.999378,-77.097882,"YES","NO",NA,NA,"NO",6,12,391521.16731482,147941.70542165,NA,32053,259,160,419,-99,-23.6276849642005
321,166773897,309,"Friendship Blvd & Willard Ave",32040,38.96115,-77.088659,"YES","NO",NA,NA,"NO",8,11,392315.96955553,143697.21146898,NA,32040,188,229,417,41,9.83213429256595
422,166773997,415,"Lee Center",31914,38.797557,-77.053766,"YES","NO",NA,NA,"NO",6,8,395329.43195741,125534.78097568,NA,31914,164,248,412,84,20.3883495145631
359,166773934,346,"6th & S Ball St",31090,38.864702,-77.048672,"YES","NO",NA,NA,"NO",11,3,395775.91368285,132988.07874506,NA,31090,204,204,408,0,0
192,166771847,175,"Washington Blvd & 7th St N",31032,38.880834,-77.091129,"YES","NO",NA,NA,"NO",2,9,392092.9958064,134781.67205596,NA,31032,240,165,405,-75,-18.5185185185185
383,166773958,376,"Yuma St & Tenley Circle NW",31316,38.946182,-77.08059,"YES","NO",NA,NA,"NO",1,18,393013.83863539,142034.97914405,NA,31316,334,69,403,-265,-65.7568238213399
234,166771889,219,"S Troy St & 26th St S",31056,38.847977,-77.075104,"YES","NO",NA,NA,"NO",5,6,393480.43841302,131133.03943473,NA,31056,217,184,401,-33,-8.22942643391521
254,166771909,240,"Pleasant St & MLK Ave SE",31807,38.863897,-76.990037,"YES","NO",NA,NA,"NO",7,4,400864.66651397,132897.63895866,NA,31807,215,180,395,-35,-8.86075949367089
272,166771927,258,"Fenton St & New York Ave",32001,38.985404,-77.023082,"YES","NO",NA,NA,"NO",4,11,398000.17527578,146386.15892257,NA,32001,249,146,395,-103,-26.0759493670886
284,166771939,270,"Montgomery & East Ln",32013,38.983525,-77.095367,"YES","NO",NA,NA,"NO",7,4,391737.18561936,146181.63464028,NA,32013,194,183,377,-11,-2.91777188328912
169,166771824,152,"Anacostia Ave & Benning Rd NE / River Terrace",31708,38.896544,-76.96012,"YES","NO",NA,NA,"NO",6,9,403459.51281234,136522.41355417,NA,31708,175,195,370,20,5.40540540540541
379,166773954,371,"Georgia & Missouri Ave NW",31411,38.961339,-77.027855,"YES","NO",NA,NA,"NO",6,13,397585.82737487,143714.82919728,NA,31411,226,143,369,-83,-22.4932249322493
384,166773959,377,"Connecticut Ave & Chevy Chase Lake Dr",32051,38.994113,-77.076986,"YES","NO",NA,NA,"NO",6,8,393330.74818065,147355.50381716,NA,32051,163,201,364,38,10.4395604395604
228,166771883,213,"28th St S & S Meade St",31055,38.846222,-77.069275,"YES","NO",NA,NA,"NO",11,4,393986.28914822,130937.82204983,NA,31055,163,199,362,36,9.94475138121547
240,166771895,225,"13th St & Eastern Ave",32006,38.987,-77.029417,"YES","NO",NA,NA,"NO",8,7,397451.3679179,146563.48846577,NA,32006,191,161,352,-30,-8.52272727272727
295,166771951,282,"47th & Elm St",32021,38.982456,-77.091991,"YES","NO",NA,NA,"NO",9,6,392029.57027544,146062.66507911,NA,32021,155,196,351,41,11.6809116809117
434,166774009,428,"Tysons Corner Station",32204,38.920939,-77.222115,"YES","NO",NA,NA,"NO",3,8,380738.56101699,139253.13535423,NA,32204,183,168,351,-15,-4.27350427350427
74,166774123,456,"Carlin Springs Rd & N Thomas St",31919,38.876695,-77.112982,"YES","NO",NA,NA,"NO",8,7,390196.30536757,134324.33170588,NA,31919,201,146,347,-55,-15.850144092219
319,166773895,307,"Long Bridge Park/Long Bridge Dr & 6th St S",31071,38.86646,-77.04826,"YES","NO",NA,NA,"NO",7,4,395811.77300147,133183.21065875,NA,31071,171,170,341,-1,-0.293255131964809
413,166773988,406,"Commonwealth Ave & Oak St",31906,38.812711,-77.061715,"YES","NO",NA,NA,"NO",7,12,394640.05213358,127217.4065506,NA,31906,169,169,338,0,0
31,166774080,66,"Anacostia Library",31804,38.865784,-76.9784,"YES","NO",NA,NA,"NO",9,2,401874.56617125,133107.28439427,NA,31804,189,143,332,-46,-13.855421686747
235,166771890,220,"S Four Mile Run Dr & S Shirlington Rd",31057,38.8444,-77.085931,"YES","NO",NA,NA,"NO",7,3,392540.20426708,130736.79656,NA,31057,129,179,308,50,16.2337662337662
411,166773986,404,"East Falls Church Metro/Sycamore St & 19th St N",31904,38.884859,-77.155988,"YES","NO",NA,NA,"NO",8,9,386466.13262254,135236.09428263,NA,31904,154,153,307,-1,-0.325732899022801
412,166773987,405,"Kennebec St & 11th St N",31905,38.880992,-77.135271,"YES","NO",NA,NA,"NO",4,11,388262.94832495,134803.96063251,NA,31905,137,169,306,32,10.4575163398693
56,166774105,438,"Reston Town Center Transit Station",32214,38.957037,-77.359718,"YES","NO",NA,NA,"NO",12,5,368821.70051475,143298.32745781,NA,32214,153,144,297,-9,-3.03030303030303
167,166771822,150,"Benning Rd & East Capitol St NE / Benning Rd Metro",31707,38.889935,-76.93723,"YES","NO",NA,NA,"NO",6,13,405445.68021157,135789.87902946,NA,31707,162,126,288,-36,-12.5
340,166773915,327,"Rockville Metro West",32047,39.084379,-77.146866,"YES","NO",NA,NA,"NO",7,12,387293.21007282,157383.44319069,NA,32047,172,115,287,-57,-19.8606271777003
405,166773980,398,"Potomac Ave & Main Line Blvd",31910,38.822738,-77.049265,"YES","NO",NA,NA,"NO",11,7,395721.93521693,128329.81125103,NA,31910,141,138,279,-3,-1.0752688172043
257,166771912,243,"S George Mason Dr & Four Mile Run",31063,38.852248,-77.105022,"YES","NO",NA,NA,"NO",4,6,390883.88955688,131609.71253131,NA,31063,138,133,271,-5,-1.8450184501845
73,166774122,455,"3rd St & Riggs Rd NE",31412,38.957463,-77.002239,"YES","NO",NA,NA,"NO",11,4,399805.93693957,143284.19137817,NA,31412,113,152,265,39,14.7169811320755
312,166773888,299,"King Farm Blvd & Piccard Dr",32038,39.110314,-77.182669,"YES","NO",NA,NA,"NO",8,5,384201.31311065,160268.14020717,NA,32038,164,101,265,-63,-23.7735849056604
320,166773896,308,"Old Georgetown Rd & Southwick St",32039,38.999634,-77.109647,"YES","NO",NA,NA,"NO",11,8,390502.08229336,147971.28240078,NA,32039,172,89,261,-83,-31.8007662835249
402,166773977,395,"East West Hwy & 16th St",32056,38.995681,-77.038721,"YES","NO",NA,NA,"NO",4,14,396645.69611866,147527.46678748,NA,32056,169,89,258,-80,-31.0077519379845
435,166774010,429,"Westpark & Jones Branch Dr",32205,38.924437,-77.217664,"YES","NO",NA,NA,"NO",6,5,381125.46936865,139640.51216859,NA,32205,131,123,254,-8,-3.1496062992126
329,166773905,317,"Veterans Pl & Pershing Dr",32043,38.997445,-77.023894,"YES","NO",NA,NA,"NO",5,6,397930.17345122,147722.84809045,NA,32043,83,167,250,84,33.6
32,166774081,67,"Pennsylvania & Minnesota Ave SE",31805,38.873057,-76.971015,"YES","NO",NA,NA,"NO",9,2,402515.22051118,133914.81891889,NA,31805,81,164,245,83,33.8775510204082
309,166773885,296,"Georgia Ave & Spring St",32035,38.999388,-77.031555,"YES","NO",NA,NA,"NO",6,5,397266.61108519,147938.74232081,NA,32035,120,120,240,0,0
391,166773966,384,"Washington Blvd & N Frederick St",31901,38.884829,-77.127671,"YES","NO",NA,NA,"NO",6,4,388922.97236949,135228.94699865,NA,31901,130,109,239,-21,-8.78661087866109
3,166774052,37,"Minnesota Ave Metro/DOES",31703,38.897063,-76.947446,"YES","NO",NA,NA,"NO",4,11,404558.92450764,136580.58329247,NA,31703,124,108,232,-16,-6.89655172413793
227,166771882,212,"Walter Reed Community Center / Walter Reed Dr & 16th St S",31054,38.857803,-77.086733,"YES","NO",NA,NA,"NO",2,9,392471.99507726,132224.68968124,NA,31054,117,114,231,-3,-1.2987012987013
430,166774005,423,"16th & Q St SE / Anacostia HS",31812,38.870695,-76.982359,"YES","NO",NA,NA,"NO",9,14,401530.8771481,133652.36788743,NA,31812,80,145,225,65,28.8888888888889
294,166771950,281,"Crabbs Branch Way & Calhoun Pl",32020,39.107709,-77.152072,"YES","NO",NA,NA,"NO",8,7,386847.10375582,159974.10023058,NA,32020,114,109,223,-5,-2.24215246636771
421,166773996,414,"Mount Vernon Ave & Bruce St",31912,38.841291,-77.063093,"YES","NO",NA,NA,"NO",13,2,394522.56553515,130390.05783003,NA,31912,77,125,202,48,23.7623762376238
89,166774138,471,"7th & E St SW",31294,38.88345,-77.021741,"YES","NO",NA,NA,"NO",12,6,398113.66411757,135068.34613835,NA,31294,103,98,201,-5,-2.48756218905473
297,166773873,284,"Montgomery College/W Campus Dr & Mannakee St",32023,39.095661,-77.159048,"YES","NO",NA,NA,"NO",13,8,386241.41121024,158637.64923132,NA,32023,93,102,195,9,4.61538461538461
302,166773878,289,"Norfolk & Rugby Ave",32028,38.990639,-77.100239,"YES","NO",NA,NA,"NO",7,4,391315.93174708,146971.81066443,NA,32028,64,129,193,65,33.6787564766839
330,166773906,318,"Rockville Metro East",32044,39.085394,-77.145803,"YES","NO",NA,NA,"NO",5,8,387385.36031083,157495.97307419,NA,32044,81,104,185,23,12.4324324324324
336,166773911,323,"Rolfe St & 9th St S",31075,38.866471,-77.076131,"YES","NO",NA,NA,"NO",4,7,393392.99961931,133186.07966769,NA,31075,78,103,181,25,13.8121546961326
239,166771894,224,"S Kenmore & 24th St S",31061,38.848454,-77.084918,"YES","NO",NA,NA,"NO",6,4,392628.5628703,131186.73644678,NA,31061,98,82,180,-16,-8.88888888888889
376,166773951,368,"S Walter Reed Dr & 8th St S",31096,38.86612,-77.08787,"YES","NO",NA,NA,"NO",8,6,392374.19768093,133148.03121274,NA,31096,88,90,178,2,1.12359550561798
386,166773961,379,"Lee Hwy & N Woodstock St",31900,38.898301,-77.118009,"YES","NO",NA,NA,"NO",6,13,389763.20231192,136723.31546751,NA,31900,105,66,171,-39,-22.8070175438597
63,166774112,445,"Temporary Rd & Old Reston Ave",32218,38.960084,-77.353414,"YES","NO",NA,NA,"NO",7,8,369369.40191424,143634.4358956,NA,32218,90,70,160,-20,-12.5
358,166773933,345,"Washington Adventist U / Flower Ave & Division St",32049,38.986743,-77.000035,"YES","NO",NA,NA,"NO",7,7,399996.96765659,146534.54829125,NA,32049,69,82,151,13,8.60927152317881
311,166773887,298,"King Farm Blvd & Pleasant Dr",32037,39.114688,-77.171487,"YES","NO",NA,NA,"NO",7,11,385169.33354228,160751.83427443,NA,32037,74,75,149,1,0.671140939597315
55,166774104,437,"Sunset Hills & Old Reston Ave",32213,38.955079,-77.351649,"YES","NO",NA,NA,"NO",7,8,369520.23453313,143078.24814447,NA,32213,70,76,146,6,4.10958904109589
363,166773938,350,"Spring St & Second Ave",32050,38.997653,-77.034499,"YES","NO",NA,NA,"NO",4,11,397011.52018405,147746.23200566,NA,32050,83,62,145,-21,-14.4827586206897
35,166774084,70,"Benning Branch Library",31705,38.894,-76.947974,"YES","NO",NA,NA,"NO",6,5,404513.31564725,136240.53983015,NA,31705,68,76,144,8,5.55555555555556
70,166774119,452,"Sligo Ave & Carroll Ln",32058,38.990874,-77.016311,"YES","NO",NA,NA,"NO",7,8,398586.92327584,146993.256491,NA,32058,61,82,143,21,14.6853146853147
373,166773948,364,"Army Navy Dr & S Nash St",31095,38.862756,-77.067185,"YES","NO",NA,NA,"NO",2,9,394169.07123061,132773.07810996,NA,31095,92,48,140,-44,-31.4285714285714
149,166771804,132,"Fairfax Village",31706,38.86559,-76.952103,"YES","NO",NA,NA,"NO",4,10,404156.7748465,133086.6176774,NA,31706,92,46,138,-46,-33.3333333333333
122,166771777,100,"Branch & Pennsylvania Ave SE",31701,38.8692,-76.9599,"YES","NO",NA,NA,"NO",2,9,403479.93073282,133487.02816607,NA,31701,89,45,134,-44,-32.8358208955224
81,166774130,463,"Amherst Ave & Elkins St",32063,39.044887,-77.047788,"YES","NO",NA,NA,"NO",7,8,395863.10400444,152990.22852961,NA,32063,59,70,129,11,8.52713178294574
253,166771908,239,"Alabama & MLK Ave SE",31800,38.843222,-76.999388,"YES","NO",NA,NA,"NO",4,7,400053.12949919,130602.51954593,NA,31800,61,68,129,7,5.42635658914729
315,166773891,303,"Nannie Helen Burroughs Ave & 49th St NE",31710,38.898536,-76.931862,"YES","NO",NA,NA,"NO",9,2,405910.67420774,136744.99164114,NA,31710,59,67,126,8,6.34920634920635
172,166771827,155,"Congress Heights Metro",31806,38.844711,-76.987823,"YES","NO",NA,NA,"NO",0,13,401057.09871953,130767.87922723,NA,31806,75,48,123,-27,-21.9512195121951
275,166771930,261,"Fallsgrove Blvd & Fallsgrove Dr",32004,39.096312,-77.192672,"YES","NO",NA,NA,"NO",7,12,383332.89363763,158715.52157619,NA,32004,56,59,115,3,2.60869565217391
410,166773985,403,"Radford & Osage St",31908,38.828437,-77.086031,"YES","NO",NA,NA,"NO",8,14,392529.85317524,128964.8036433,NA,31908,67,47,114,-20,-17.5438596491228
59,166774108,441,"Library St & Freedom Dr",32216,38.959633,-77.358741,"YES","NO",NA,NA,"NO",8,11,368907.51332443,143586.17197497,NA,32216,55,54,109,-1,-0.917431192660551
80,166774129,462,"Wheaton Metro/Georgia Ave & Reedie Dr",32062,39.038341,-77.051023,"YES","NO",NA,NA,"NO",7,12,395582.65145222,152263.70107898,NA,32062,64,45,109,-19,-17.4311926605505
307,166773883,294,"Piccard & W Gude Dr",32033,39.102212,-77.177091,"YES","NO",NA,NA,"NO",15,4,384681.99807835,159367.76528288,NA,32033,41,63,104,22,21.1538461538462
395,166773970,388,"Lyttonsville Rd & Lyttonsville Pl",32054,38.999679,-77.051168,"YES","NO",NA,NA,"NO",5,9,395567.69234355,147971.8160368,NA,32054,51,51,102,0,0
292,166771948,279,"Needwood Rd & Eagles Head Ct",32018,39.123513,-77.15741,"YES","NO",NA,NA,"NO",4,11,386388.43917458,161729.3311025,NA,32018,47,54,101,7,6.93069306930693
474,166774049,34,"Good Hope & Naylor Rd SE",31700,38.8601,-76.9672,"YES","NO",NA,NA,"NO",3,8,402846.79011674,132476.60854073,NA,31700,67,30,97,-37,-38.1443298969072
306,166773882,293,"Fleet St & Ritchie Pkwy",32032,39.076331,-77.141378,"YES","NO",NA,NA,"NO",8,7,387766.64569552,156489.26883494,NA,32032,36,57,93,21,22.5806451612903
433,166774008,427,"Tysons One Pl & Chain Bridge Rd",32203,38.919475,-77.221179,"YES","NO",NA,NA,"NO",4,7,380819.33544907,139090.42242219,NA,32203,45,47,92,2,2.17391304347826
291,166771947,278,"Monroe St & Monroe Pl",32017,39.083673,-77.149162,"YES","NO",NA,NA,"NO",8,7,387094.43314867,157305.3907351,NA,32017,41,50,91,9,9.89010989010989
88,166774137,470,"18th & Monroe St NE",31521,38.93293,-76.979517,"YES","NO",NA,NA,"NO",14,5,401775.95435655,140561.00567055,NA,31521,31,58,89,27,30.3370786516854
437,166774012,431,"Westpark & Park Run Dr",32207,38.928919,-77.225394,"YES","NO",NA,NA,"NO",7,4,380456.39941172,140139.67762131,NA,32207,41,45,86,4,4.65116279069767
296,166771952,283,"Garland Ave & Walden Rd",32022,39.000578,-77.00149,"YES","NO",NA,NA,"NO",8,7,399870.93387652,148070.37306511,NA,32022,62,23,85,-39,-45.8823529411765
278,166771933,264,"E Montgomery Ave & Maryland Ave",32007,39.084125,-77.151291,"YES","NO",NA,NA,"NO",2,13,386910.31438669,157355.87132814,NA,32007,35,49,84,14,16.6666666666667
385,166773960,378,"Key West Ave & Siesta Key Way",32052,39.105295,-77.194774,"YES","NO",NA,NA,"NO",5,10,383153.18792963,159713.13218025,NA,32052,35,43,78,8,10.2564102564103
399,166773974,392,"South Capitol & Atlantic St SW",31811,38.831516,-77.008133,"YES","NO",NA,NA,"NO",6,8,399293.83485771,129303.10478708,NA,31811,32,46,78,14,17.9487179487179
60,166774109,442,"Sunset Hills Rd & Discovery Square",32217,38.95534,-77.357611,"YES","NO",NA,NA,"NO",5,10,369003.58432792,143109.22880515,NA,32217,51,26,77,-25,-32.4675324675325
83,166774132,465,"Grandview & Blueridge Ave",32065,39.043272,-77.053085,"YES","NO",NA,NA,"NO",7,8,395404.45083084,152811.19876663,NA,32065,38,39,77,1,1.2987012987013
242,166771897,227,"S George Mason Dr & 13th St S",31062,38.854691,-77.100555,"YES","NO",NA,NA,"NO",7,4,391271.93225753,131880.46618931,NA,31062,39,38,77,-1,-1.2987012987013
77,166774126,459,"Pooks Hill Rd & Linden Ave",32057,39.014716,-77.107143,"YES","NO",NA,NA,"NO",9,6,390720.95043328,149645.2816699,NA,32057,33,42,75,9,12
436,166774011,430,"Jones Branch & Westbranch Dr",32206,38.931911,-77.219261,"YES","NO",NA,NA,"NO",9,4,380988.98002738,140470.51937627,NA,32206,29,46,75,17,22.6666666666667
323,166773899,311,"31st & Woodrow St S",31072,38.837666,-77.09482,"YES","NO",NA,NA,"NO",4,7,391767.76100852,129990.04042841,NA,31072,64,10,74,-54,-72.972972972973
280,166771935,266,"Frederick Ave & Horners Ln",32009,39.094772,-77.145213,"YES","NO",NA,NA,"NO",7,4,387438.06215384,158536.96474703,NA,32009,49,24,73,-25,-34.2465753424658
87,166774136,469,"3rd & Underwood St NW",31413,38.968834,-77.016258,"YES","NO",NA,NA,"NO",7,12,398591.07910767,144546.60165408,NA,31413,39,33,72,-6,-8.33333333333333
290,166771945,276,"Crabbs Branch Way & Redland Rd",32015,39.120045,-77.156985,"YES","NO",NA,NA,"NO",5,10,386424.52768958,161344.27440776,NA,32015,37,34,71,-3,-4.22535211267606
258,166771913,244,"S Stafford & 34th St S",31064,38.834108,-77.087323,"YES","NO",NA,NA,"NO",9,2,392418.26989469,129594.42903651,NA,31064,38,32,70,-6,-8.57142857142857
67,166774116,449,"Georgia Ave & Piney Branch Rd NW",31414,38.967505,-77.027976,"YES","NO",NA,NA,"NO",8,7,397575.55015788,144399.31612925,NA,31414,35,33,68,-2,-2.94117647058824
4,166774053,38,"Nannie Helen Burroughs & Minnesota Ave NE",31704,38.901385,-76.941877,"YES","NO",NA,NA,"NO",8,3,405041.71541905,137060.65262358,NA,31704,28,35,63,7,11.1111111111111
54,166774103,436,"New Dominion Pkwy & Fountain Dr",32212,38.960574,-77.356324,"YES","NO",NA,NA,"NO",6,9,369117.40410412,143689.81045718,NA,32212,34,27,61,-7,-11.4754098360656
2,166774051,36,"Randle Circle & Minnesota Ave SE",31702,38.878,-76.9607,"YES","NO",NA,NA,"NO",5,6,403410.08514111,134463.86390983,NA,31702,29,31,60,2,3.33333333333333
236,166771891,221,"S Oakland St & Columbia Pike",31058,38.860789,-77.09586,"YES","NO",NA,NA,"NO",10,1,391680.16396318,132556.94935025,NA,31058,22,35,57,13,22.8070175438597
438,166774013,432,"Tysons West Transit Center",32208,38.932636,-77.231825,"YES","NO",NA,NA,"NO",5,6,379899.82535415,140553.69184941,NA,32208,24,30,54,6,11.1111111111111
78,166774127,460,"Takoma Park Rec Center",32059,38.98265,-76.988311,"YES","NO",NA,NA,"NO",9,6,401012.77423762,146080.24993225,NA,32059,17,35,52,18,34.6153846153846
432,166774007,425,"Westpark Dr & Leesburg Pike",32201,38.92403,-77.235955,"YES","NO",NA,NA,"NO",6,5,379539.26898978,139599.2725456,NA,32201,26,26,52,0,0
84,166774133,466,"Windham Ln & Amherst Ave",32066,39.032029,-77.04735,"YES","NO",NA,NA,"NO",10,5,395900.28028089,151562.82832343,NA,32066,22,29,51,7,13.7254901960784
82,166774131,464,"Amherst Ave & Prichard Rd",32064,39.035965,-77.048395,"YES","NO",NA,NA,"NO",7,8,395810.0323662,151999.81494344,NA,32064,25,25,50,0,0
85,166774134,467,"North Shore Dr & Village Rd",32223,38.970412,-77.340787,"YES","NO",NA,NA,"NO",5,6,370468.0661928,144776.77171083,NA,32223,23,27,50,4,8
335,166771946,277,"Fallsgrove Dr & W Montgomery Ave",32016,39.099376,-77.188014,"YES","NO",NA,NA,"NO",4,11,383736.53425668,159054.82333901,NA,32016,24,24,48,0,0
431,166774006,424,"Spring Hill Metro",32200,38.929261,-77.240654,"YES","NO",NA,NA,"NO",11,4,379133.32906395,140181.01997978,NA,32200,25,21,46,-4,-8.69565217391304
64,166774113,446,"Reston YMCA",32219,38.955314,-77.368416,"YES","NO",NA,NA,"NO",6,9,368067.03974401,143110.06678211,NA,32219,22,23,45,1,2.22222222222222
429,166774004,422,"Division Ave & Foote St NE",31713,38.897407,-76.925907,"YES","NO",NA,NA,"NO",8,7,406427.34608733,136620.06609604,NA,31713,21,21,42,0,0
439,166774014,433,"North Shore & Cameron Crescent Dr/Crescent Apartments",32209,38.970046,-77.338686,"YES","NO",NA,NA,"NO",6,5,370649.98316139,144735.46493428,NA,32209,20,22,42,2,4.76190476190476
327,166773903,315,"Medical Center Dr & Key West Ave",32041,39.103091,-77.196442,"YES","NO",NA,NA,"NO",7,8,383008.38939989,159468.76971438,NA,32041,20,21,41,1,2.4390243902439
75,166774124,457,"Towers Crescent Dr & Tysons One Pl",32222,38.915246,-77.220157,"YES","NO",NA,NA,"NO",7,4,380906.83105285,138620.75516987,NA,32222,16,20,36,4,11.1111111111111
62,166774111,444,"61st St & Banks Pl NE",31714,38.891805,-76.913563,"YES","NO",NA,NA,"NO",11,8,407498.73967816,135999.14156768,NA,31714,12,19,31,7,22.5806451612903
79,166774128,461,"New Hampshire & Kirklynn Ave",32061,38.988101,-76.988422,"YES","NO",NA,NA,"NO",5,10,401003.0800788,146685.36332198,NA,32061,12,18,30,6,20
68,166774117,450,"Greensboro & International Dr",32221,38.923083,-77.227417,"YES","NO",NA,NA,"NO",6,5,380279.37434818,139492.26880639,NA,32221,18,11,29,-7,-24.1379310344828
328,166773904,316,"Shady Grove Hospital",32042,39.097636,-77.196636,"YES","NO",NA,NA,"NO",10,9,382990.30463098,158863.23308023,NA,32042,14,13,27,-1,-3.7037037037037
440,166774015,434,"Town Center Pkwy & Bowman Towne Dr",32210,38.962524,-77.361902,"YES","NO",NA,NA,"NO",7,8,368634.8195974,143908.17868719,NA,32210,16,11,27,-5,-18.5185185185185
305,166773881,292,"Taft St & E Gude Dr",32031,39.094103,-77.132954,"YES","NO",NA,NA,"NO",8,7,388498.44225283,158461.08173,NA,32031,9,11,20,2,10
276,166771931,262,"Traville Gateway Dr & Gudelsky Dr",32005,39.093783,-77.202501,"YES","NO",NA,NA,"NO",9,10,382482.01381244,158436.61187288,NA,32005,7,10,17,3,17.6470588235294
53,166774102,435,"Reston Regional Library",32211,38.962095,-77.358815,"YES","NO",NA,NA,"NO",6,9,368902.1739327,143859.49993933,NA,32211,3,4,7,1,14.2857142857143
316,166773892,304,"Deanwood Rec Center",31711,38.908473,-76.933099,"YES","NO",NA,NA,"NO",6,9,405802.5614741,137847.99932996,NA,31711,3,4,7,1,14.2857142857143
304,166773880,291,"Broschart & Blackwell Rd",32030,39.102099,-77.200322,"YES","NO",NA,NA,"NO",3,12,382672.5405711,159359.37466242,NA,32030,3,3,6,0,0
65,166774114,447,"Sunset Hills Rd & Isaac Newton Square",32220,38.951443,-77.34038,"YES","NO",NA,NA,"NO",5,6,370495.7444288,142670.91855872,NA,32220,0,0,0,0,NA
86,166774135,468,"Town Center Pkwy & Sunset Hills Rd",32224,38.955171,-77.363094,"YES","NO",NA,NA,"NO",6,5,368528.26577752,143092.3443935,NA,32224,0,0,0,0,NA
90,166774139,472,"Shady Grove Metro East",32067,39.121327,-77.164969,"YES","NO",NA,NA,"NO",12,7,385734.35932116,161487.81062324,NA,32067,0,0,0,0,NA
91,166774140,473,"Potomac & M St NW",31295,38.905368,-77.065149,"YES","NO",NA,NA,"NO",4,14,394349.14970107,137503.20919441,NA,31295,0,0,0,0,NA
92,166774141,474,"Columbia & Ontario Rd NW",31296,38.924088,-77.040787,"YES","NO",NA,NA,"NO",1,21,396463.17281514,139580.05853158,NA,31296,0,0,0,0,NA
93,166774142,475,"Washington-Lee High School / N Stafford St & Generals Way",31920,38.888282,-77.111066,"YES","NO",NA,NA,"NO",2,12,390364.12569347,135610.37264375,NA,31920,0,0,0,0,NA
94,166774143,476,"Westover Library / Washington Blvd & N McKinley Rd",31921,38.886048,-77.142317,"YES","NO",NA,NA,"NO",3,11,387652.46388519,135366.14435057,NA,31921,0,0,0,0,NA
95,166774144,477,"Columbia Pike & S Taylor St",31923,38.858524,-77.103728,"YES","NO",NA,NA,"NO",10,5,390997.00279743,132306.26461119,NA,31923,0,0,0,0,NA
96,166774145,478,"Columbus Ave & Tribeca St",32068,39.126,-77.1673,"YES","NO",NA,NA,"NO",0,10,385533.7377928,162006.94178854,NA,32068,0,0,0,0,NA
97,166774146,479,"Columbus Ave & Gramercy Blvd",32069,39.12333,-77.16486,"YES","NO",NA,NA,"NO",5,6,385744.18661456,161710.15281948,NA,32069,0,0,0,0,NA
98,166774147,480,"Reston Pkwy & Spectrum Dr",32225,38.964208,-77.35428,"YES","NO",NA,NA,"NO",6,9,369296.1222373,144092.52580133,NA,32225,0,0,0,0,NA
99,166774148,481,"Key West Ave & Great Seneca Hwy",32070,39.105642,-77.20386,"YES","NO",NA,NA,"NO",4,7,382367.38936046,159753.36941456,NA,32070,0,0,0,0,NA
100,166774149,482,"Virginia Ave & 25th St NW",31297,38.8995,-77.054155,"YES","NO",NA,NA,"NO",10,9,395302.35335497,136851.190868,NA,31297,0,0,0,0,NA
101,166774150,483,"15th & M St NW",31298,38.905424,-77.034674,"YES","NO",NA,NA,"NO",0,18,396992.47200484,137507.98042771,NA,31298,0,0,0,0,NA
102,166774151,484,"11th & Girard St NW",31126,38.925636,-77.027112,"YES","NO",NA,NA,"NO",4,15,397649.0455579,139751.45871596,NA,31126,0,0,0,0,NA
103,166774152,485,"Connecticut Ave & R St NW",31299,38.912644,-77.04564,"YES","NO",NA,NA,"NO",4,14,396041.71190715,138309.87791719,NA,31299,0,0,0,0,NA
104,166774153,486,"Wilson Blvd & N Troy St",31924,38.892556,-77.082089,"YES","NO",NA,NA,"NO",5,10,392878.54077938,136082.16026187,NA,31924,0,0,0,0,NA
105,166774154,487,"Nebraska Ave/AU East Campus",31320,38.936298,-77.087128,"YES","NO",NA,NA,"NO",6,12,392446.02744342,140938.28866237,NA,31320,0,0,0,0,NA
106,166774155,488,"15th St & Constitution Ave NW",31321,38.892244,-77.033234,"YES","NO",NA,NA,"NO",19,0,397116.84102069,136044.84872031,NA,31321,0,0,0,0,NA
107,166774156,489,"22nd & H St NW",31127,38.899104,-77.048946,"YES","NO",NA,NA,"NO",10,7,395754.18167179,136806.97654528,NA,31127,0,0,0,0,NA
108,166774157,490,"23rd & M St NW",31128,38.905303,-77.050264,"YES","NO",NA,NA,"NO",9,9,395640.23073239,137495.17752963,NA,31128,0,0,0,0,NA
109,166774158,491,"Corporate Blvd & Omega Dr",32071,39.106971,-77.192645,"YES","NO",NA,NA,"NO",8,7,383337.72634014,159898.79852701,NA,32071,0,0,0,0,NA
371,166773946,358,"2nd St & Seaton Pl NE",31522,38.914751,-77.00356,"YES","NO",NA,NA,"NO",0,19,399691.25569893,138542.7889275,NA,31522,0,0,0,0,NA
